{"branch":[
 {"img":"logo_olla.jpg","name":"אולה","desc":"תפריט כשר ומגוון","area":"אילת","city":"אילת","address":"תרשיש 7","phone":"08-6325566","category":"מסעדה","type":"בשרים,דגים","hours":"א-ה: 13:00-24:00\nשישי: 13:00 עד שעה לכניסת השבת\nשבת: מוצ\"ש - 24:00","kosher":"כשר","handicap":"Y","website":"olla-tapas.co.il","delivery":"ישיבה במסעדה","internal_link":"","is_new":"N","search_words":"","latitude":"29.551109","longitude":"34.957545"}
,{"img":"logo_angelina.jpg","name":"אנג'לינה פיצה ופסטה","desc":"מסעדה איטלקית","area":"אילת","city":"אילת","address":"טיילת המלך , מלון המלך שלמה","phone":"08-6363439","category":"מסעדה","type":"איטלקי","hours":"א-ה: 19:00-23:00\nשישי: \nשבת: מוצ\"ש -23:00","kosher":"כשר","handicap":"Y","website":"angelinapizzapasta.rest.co.il","delivery":"ישיבה במסעדה","internal_link":"","is_new":"N","search_words":"פיצה, pizza_search, rest_isrotel","latitude":"29.557669","longitude":"34.951925"}
,{"img":"logo_marina_gril.jpg","name":"מרינה גריל","desc":"מסעדת בשרים","area":"אילת","city":"אילת","address":"טיילת המלך, מלון המלך שלמה","phone":"08-6363439","category":"מסעדה","type":"בשרים,ים תיכוני,צרפתי","hours":"א-ה: 19:00-23:00\nשישי: \nשבת: מוצ\"ש - 23:00","kosher":"כשר","handicap":"Y","website":"","delivery":"ישיבה במסעדה","internal_link":"","is_new":"N","search_words":"basar_rest","latitude":"29.557669","longitude":"34.951925"}
,{"img":"logo_casadubrasil.jpg","name":"קאזה דו ברזיל","desc":"מסעדת גריל ברזילאית","area":"אילת","city":"אילת","address":"חטיבת גולני 3","phone":"08-6323032","category":"מסעדה","type":"בשרים","hours":"א-ה: 12:00-24:00\nשישי: 12:00-24:00\nשבת: 12:00-24:00","kosher":"","handicap":"N","website":"www.casadobrasil.co.il","delivery":"ישיבה במסעדה","internal_link":"","is_new":"N","search_words":"basar_rest","latitude":"29.559034","longitude":"34.955115"}
,{"img":"logo_cafecafe_2024.jpg","name":"קפה קפה","desc":"בית קפה","area":"דרום","city":"דימונה","address":"קניון פרץ סנטר","phone":"08-6640494","category":"בית קפה","type":"בית קפה","hours":"א-ה: \nשישי: \nשבת: ","kosher":"","handicap":"N","website":"www.cafecafe.co.il/he/home/a/main","delivery":"ישיבה במסעדה","internal_link":"","is_new":"N","search_words":"קפה קפה, בית קפה","latitude":"31.060876","longitude":"35.019725"}
,{"img":"logo_cafecafe_2024.jpg","name":"קפה קפה","desc":"בית קפה","area":"דרום","city":"נתיבות","address":"בעלי המלאכה 203","phone":"050-2007220","category":"בית קפה","type":"בית קפה","hours":"א-ה: \nשישי: \nשבת: ","kosher":"כשר למהדרין-חלבי","handicap":"N","website":"www.cafecafe.co.il/he/home/a/main","delivery":"ישיבה במסעדה","internal_link":"","is_new":"N","search_words":"קפה קפה, בית קפה","latitude":"31.418213","longitude":"34.595217"}
,{"img":"logo_cafecafe_2024.jpg","name":"קפה קפה","desc":"בית קפה","area":"דרום","city":"קריית גת","address":"תחנת דלק סונול, צומת פלוגות","phone":"08-6602056","category":"בית קפה","type":"בית קפה","hours":"א-ה: \nשישי: \nשבת: ","kosher":"","handicap":"N","website":"www.cafecafe.co.il/he/home/a/main","delivery":"ישיבה במסעדה","internal_link":"","is_new":"N","search_words":"קפה קפה, בית קפה","latitude":"31.626405","longitude":"34.758659"}
,{"img":"logo_almog.jpg","name":"אלמוג על הדרך","desc":"מזנון דרכים","area":"ירושלים","city":"אלמוג","address":"צומת אלמוג","phone":"02-9941606","category":"בית קפה","type":"בית קפה","hours":"א-ה: 24 שעות\nשישי: 24 שעות\nשבת: 24 שעות","kosher":"","handicap":"N","website":"","delivery":"ישיבה במסעדה","internal_link":"","is_new":"N","search_words":"","latitude":"31.801619","longitude":"35.450751"}
,{"img":"logo_carma.jpg","name":"כרמא","desc":"תפריט עשיר ומגוון","area":"ירושלים","city":"ירושלים","address":"עין כרם 74","phone":" 02-6436643","category":"מסעדה","type":"איטלקי,בשרים,דגים","hours":"א-ה: 10:00-24:00\nשישי: 10:00-24:00\nשבת: 10:00-24:00","kosher":"","handicap":"N","website":"www.karma-rest.co.il/he/home/a/main/#home/1","delivery":"ישיבה במסעדה","internal_link":"","is_new":"N","search_words":"","latitude":"31.779489","longitude":"35.162464"}
,{"img":"logo_noya.jpg","name":"נויה ","desc":"מסעדת שף - לא כולל ארוחות עסקיות","area":"ירושלים","city":"ירושלים","address":"שלומציון המלכה 3","phone":"02-6257311","category":"מסעדה","type":"בשרים,ים תיכוני,צרפתי","hours":"א-ה: 12:00-24:00\nשישי: 11:30-15:00\nשבת: סגור","kosher":"כשר למהדרין","handicap":"Y","website":"","delivery":"ישיבה במסעדה","internal_link":"","is_new":"N","search_words":"","latitude":"31.780043","longitude":"35.221743"}
,{"img":"logo_cafecafe_2024.jpg","name":"קפה קפה","desc":"בית קפה","area":"ירושלים","city":"יפית","address":"בין מושב יפית לצומת פצאל מפגש הבקעה, כביש 90","phone":"02-9400808","category":"בית קפה","type":"בית קפה","hours":"א-ה: \nשישי: \nשבת: ","kosher":"כשר","handicap":"N","website":"www.cafecafe.co.il/he/home/a/main","delivery":"ישיבה במסעדה","internal_link":"","is_new":"N","search_words":"קפה קפה, בית קפה","latitude":"32.048331","longitude":"35.463133"}
,{"img":"logo_aircafe.jpg","name":"אייר קפה ","desc":"בית קפה","area":"מרכז","city":"לוד","address":"הערבה 2 , שדרות התעופה, נמל תעופה בן גוריון","phone":"03-9791812","category":"בית קפה","type":"בית קפה","hours":"א-ה: 08:00-לקוח אחרון\nשישי: 08:00-14:00\nשבת: מוצ\"ש-לקוח אחרון","kosher":"כשר","handicap":"N","website":"www.2eat.co.il/aircaffe","delivery":"ישיבה במסעדה","internal_link":"","is_new":"N","search_words":"","latitude":"31.996794","longitude":"34.877521"}
,{"img":"logo_for-fb.jpg","name":"בוצ'רי דה ברילוצ'ה ","desc":"בשרי לא כולל ארוחות עסקיות ","area":"מרכז","city":"תל אביב - יפו","address":"הברזל 4","phone":"077-5309700","category":"מסעדה","type":"בשרים","hours":"א-ה: 12:00-24:00\nשישי: 12:00-24:00\nשבת: 12:00-24:00","kosher":"","handicap":"N","website":"butchery.co.il/","delivery":"ישיבה במסעדה","internal_link":"","is_new":"N","search_words":"","latitude":"32.106480","longitude":"34.834695"}
,{"img":"logo_herzelBar.jpg","name":"הרצל בר קפה","desc":"בית קפה","area":"מרכז","city":"רחובות","address":"הרצל 209","phone":"057-9375549","category":"בית קפה","type":"בית קפה","hours":"א-ה: 10:00-לקוח אחרון\nשישי: 10:30-לקוח אחרון\nשבת: 11:00-לקוח אחרון","kosher":"","handicap":"Y","website":"herzl.rest.co.il","delivery":"ישיבה במסעדה","internal_link":"","is_new":"N","search_words":"","latitude":"31.901808","longitude":"34.808807"}
,{"img":"logo_maxbrenner_new.jpg","name":"מקס ברנר","desc":"בית קפה מתוקים וקינוחים","area":"מרכז","city":"ראשון לציון","address":"סחרוב 24","phone":"03-9522800","category":"מסעדה","type":"בית קפה,מתוקים-קינוחים","hours":"א-ה: 10:00- לקוח אחרון\nשישי: 09:00- לקוח אחרון\nשבת: 10:30 - לקוח אחרון","kosher":"","handicap":"N","website":"www.max-brenner.co.il","delivery":"ישיבה במסעדה,משלוחים","internal_link":"","is_new":"N","search_words":"מקס ברנר, שוקולד, חנות שוקולד, חלבי, sweets_delivery, CHOCOLAT","latitude":"31.990550","longitude":"34.772147"}
,{"img":"logo_maxbrenner_new.jpg","name":"מקס ברנר ","desc":"בית קפה מתוקים וקינוחים","area":"מרכז","city":"תל אביב - יפו","address":"רוטשילד 45","phone":"03-5604570","category":"מסעדה","type":"בית קפה,מתוקים-קינוחים","hours":"א-ה: 10:00- לקוח אחרון\nשישי: 09:00- לקוח אחרון\nשבת: 09:00- לקוח אחרון","kosher":"","handicap":"N","website":"www.max-brenner.co.il","delivery":"ישיבה במסעדה,משלוחים","internal_link":"mcc_item_new,302780","is_new":"N","search_words":"מקס ברנר, שוקולד, חנות שוקולד, חלבי, sweets_delivery, CHOCOLAT","latitude":"32.064186","longitude":"34.774800"}
,{"img":"logo_samir.png","name":"סמיר","desc":"בשרים על האש","area":"מרכז","city":"רמלה","address":"קהילת דטרויט 7","phone":"08-9220195","category":"מסעדה","type":"בשרים,מזרחי","hours":"א-ה: ימים ב'-ה' 08:00-18:00\nשישי: 08:00-19:00\nשבת: 07:00-19:00","kosher":"","handicap":"N","website":"www.rol.co.il/sites/samir","delivery":"ישיבה במסעדה","internal_link":"","is_new":"N","search_words":"","latitude":"31.925926","longitude":"34.873077"}
,{"img":"logo_portabelo.png","name":"פורטבלו","desc":"מסעדה חלבית כשרה","area":"דרום","city":"יבנה","address":"הירמוך 1 (בנין מול הצומת)","phone":"08-9330360","category":"מסעדה","type":"חלבי","hours":"א-ה: 1200-2200\nשישי: \nשבת: ","kosher":"כשר","handicap":"Y","website":"","delivery":"ישיבה במסעדה","internal_link":"","is_new":"N","search_words":"","latitude":"31.887744","longitude":"34.731081"}
,{"img":"logo_pronto.jpg","name":"פרונטו","desc":"מסעדת שף איטלקי","area":"מרכז","city":"תל אביב - יפו","address":"הרצל 4","phone":"03-5660915","category":"מסעדת שף","type":"איטלקי","hours":"א-ה: 12:30-24:00\nשישי: 12:30-24:00\nשבת: 12:30-24:00","kosher":"","handicap":"Y","website":"www.pronto.co.il","delivery":"ישיבה במסעדה","internal_link":"","is_new":"N","search_words":"","latitude":"32.063336","longitude":"34.769862"}
,{"img":"logo_nimrod.jpg","name":"קפה נמרוד","desc":"מסעדה גלילית","area":"מרכז","city":"תל אביב - יפו","address":"יורדי הסירה 1 , נמל תל אביב","phone":"077-2133007","category":"בית קפה","type":"בית קפה","hours":"א-ה: 08:00-לקוח אחרון\nשישי: 08:00-לקוח אחרון\nשבת: 08:00-לקוח אחרון","kosher":"","handicap":"Y","website":"cafenimrod.com","delivery":"ישיבה במסעדה","internal_link":"","is_new":"N","search_words":"קפה נמרוד, בית קפה","latitude":"32.096010","longitude":"34.776057"}
,{"img":"logo_cafecafe_2024.jpg","name":"קפה קפה","desc":"בית קפה","area":"מרכז","city":"בת ים","address":"יוספטל 92, קניון בת ים","phone":"03-5558999","category":"בית קפה","type":"בית קפה","hours":"א-ה: \nשישי: \nשבת: ","kosher":"כשר","handicap":"N","website":"www.cafecafe.co.il","delivery":"ישיבה במסעדה","internal_link":"","is_new":"N","search_words":"קפה קפה, בית קפה","latitude":"32.015582","longitude":"34.755191"}
,{"img":"logo_cafecafe_2024.jpg","name":"קפה קפה","desc":"בית קפה","area":"מרכז","city":"חולון","address":"סוקולוב 48","phone":"03-5036699","category":"בית קפה","type":"בית קפה","hours":"א-ה: \nשישי: \nשבת: ","kosher":"כשר","handicap":"N","website":"www.cafecafe.co.il","delivery":"ישיבה במסעדה","internal_link":"","is_new":"N","search_words":"קפה קפה, בית קפה","latitude":"32.022702","longitude":"34.774442"}
,{"img":"logo_cafecafe_2024.jpg","name":"קפה קפה","desc":"בית קפה מסעדה- חלבי","area":"מרכז","city":"רמלה","address":"קניון רמלוד, הצופית 40","phone":"08-9214639","category":"בית קפה","type":"בית קפה,חלבי","hours":"א-ה: 07:30-לקוח אחרון\nשישי: 07:30-14:30\nשבת: מוצ\"ש-לקוח אחרון","kosher":"כשר למהדרין","handicap":"Y","website":"www.cafecafe.co.il","delivery":"ישיבה במסעדה","internal_link":"","is_new":"N","search_words":"קפה קפה, בית קפה","latitude":"31.931315","longitude":"34.890029"}
,{"img":"logo_cafecafe_2024.jpg","name":"קפה קפה","desc":"בית קפה","area":"מרכז","city":"תל אביב - יפו","address":"קניון עזריאלי, קומה 2","phone":"03-6094770","category":"בית קפה","type":"בית קפה","hours":"א-ה: \nשישי: \nשבת: ","kosher":"כשר למהדרין","handicap":"N","website":"www.cafecafe.co.il","delivery":"ישיבה במסעדה","internal_link":"","is_new":"N","search_words":"קפה קפה, בית קפה","latitude":"32.074322","longitude":"34.792081"}
,{"img":"logo_rakbasar_new.jpg","name":"רק בשר ","desc":"בשרי","area":"מרכז","city":"תל אביב - יפו","address":"דרך שלמה 19","phone":"1-700-550-028","category":"מסעדה","type":"בשרים","hours":"א-ה: 12:00-לקוח אחרון\nשישי: 12:00-לקוח אחרון\nשבת: 12:00-לקוח אחרון","kosher":"","handicap":"N","website":"www.rakbasar.co.il","delivery":"ישיבה במסעדה","internal_link":"","is_new":"N","search_words":"basar_rest","latitude":"32.054514","longitude":"34.763000"}
,{"img":"logo_rakbasar_new.jpg","name":"רק בשר ","desc":"בשר","area":"מרכז","city":"ראשון לציון","address":"שמוטקין 10 א. תעשיה מזרח","phone":"1-700-550-028","category":"מסעדה","type":"בשרים","hours":"א-ה: 12:00-01:30\nשישי: 12:00-01:30\nשבת: 12:00-01:30","kosher":"","handicap":"N","website":"www.rakbasar.co.il","delivery":"ישיבה במסעדה","internal_link":"","is_new":"N","search_words":"basar_rest","latitude":"31.974002","longitude":"34.810782"}
,{"img":"logo_brohouse.jpg","name":"ברוהאוס הגולן","desc":"בשרי מבשלת בירה","area":"צפון","city":"קצרין","address":"א. ת. קצרין מתחם חוצות, דרך היין","phone":"04-6961311","category":"בר-פאב","type":"בר-פאב","hours":"א-ה: 11:00-לקוח אחרון\nשישי: 11:00-לקוח אחרון\nשבת: 11:00-לקוח אחרון","kosher":"","handicap":"Y","website":"www.brewhouse-golan.co.il","delivery":"ישיבה במסעדה","internal_link":"","is_new":"N","search_words":"ברוהאוס הגולן, מבשלת בשר","latitude":"32.991049","longitude":"35.707939"}
,{"img":"teamim_default.jpg","name":"סקואלה","desc":"","area":"צפון","city":"חיפה","address":"קניון חיפה - דרך משה פלימן 4","phone":"04-6294086","category":"בית קפה","type":"בית קפה","hours":"א-ה: 10:00-22:00\nשישי: 09:00- כניסת שבת\nשבת: מוצ\"ש - 23:00","kosher":"כשר","handicap":"Y","website":"","delivery":"ישיבה במסעדה","internal_link":"","is_new":"N","search_words":"","latitude":"32.790243","longitude":"34.963845"}
,{"img":"logo_kimel2.jpg","name":"קימל בגילבוע","desc":"בשרי/שף צרפתי","area":"צפון","city":"שדי תרומות","address":"מתחם סקי גלבוע דרך נוף הגלבוע","phone":"04-6895566","category":"מסעדת שף","type":"בשרים,צרפתי","hours":"א-ה: 12:00-24:00\nשישי: \nשבת: ","kosher":"","handicap":"Y","website":"kimmelbagilboa.co.il","delivery":"ישיבה במסעדה","internal_link":"","is_new":"N","search_words":"","latitude":"32.552673","longitude":"35.333576"}
,{"img":"logo_cafecafe_2024.jpg","name":"קפה קפה","desc":"בית קפה","area":"צפון","city":"יפעת","address":" תחנת דלק פז, בכניסה לקיבוץ יפעת","phone":"04-6548830","category":"בית קפה","type":"בית קפה","hours":"א-ה: \nשישי: \nשבת: ","kosher":"","handicap":"N","website":"www.cafecafe.co.il","delivery":"ישיבה במסעדה","internal_link":"","is_new":"N","search_words":"קפה קפה, בית קפה","latitude":"32.675397","longitude":"35.220881"}
,{"img":"logo_cafecafe_2024.jpg","name":"קפה קפה","desc":"בית קפה","area":"צפון","city":"קריית ים","address":"אירוס 1","phone":"04-8704296","category":"בית קפה","type":"בית קפה","hours":"א-ה: 07:30-00:00\nשישי: \nשבת: חצי שעה לאחר צאת השבת -00:00","kosher":"כשר","handicap":"N","website":"www.cafecafe.co.il","delivery":"ישיבה במסעדה","internal_link":"","is_new":"N","search_words":"קפה קפה, בית קפה","latitude":"32.842948","longitude":"35.071047"}
,{"img":"logo_cafecafe_2024.jpg","name":"קפה קפה","desc":"בית קפה","area":"צפון","city":"מעיליא","address":"כביש 89 כניסה לכפר מעיליא","phone":"04-9966680","category":"בית קפה","type":"בית קפה","hours":"א-ה: \nשישי: \nשבת: ","kosher":"","handicap":"N","website":"www.cafecafe.co.il","delivery":"ישיבה במסעדה","internal_link":"","is_new":"N","search_words":"קפה קפה, בית קפה","latitude":"33.025217","longitude":"35.253496"}
,{"img":"logo_cafecafe_2024.jpg","name":"קפה קפה ","desc":"בית קפה","area":"צפון","city":"קריית שמונה","address":"קניון נחמיה","phone":"04-6789220","category":"בית קפה","type":"בית קפה","hours":"א-ה: \nשישי: \nשבת: ","kosher":" כשר למהדרין","handicap":"Y","website":"www.cafecafe.co.il","delivery":"ישיבה במסעדה","internal_link":"","is_new":"N","search_words":"קפה קפה, בית קפה","latitude":"33.219706","longitude":"35.576833"}
,{"img":"logo_lavacaloca.jpg","name":"La Vaca Loca","desc":"מסעדת בשרים ואוכל טוב","area":"שרון","city":"הרצליה","address":"מדינת היהודים 60","phone":"09-9555037","category":"מסעדה","type":"בשרים","hours":"א-ה: 12:00-23:00\nשישי: 12:00-23:00\nשבת: 12:00-23:00","kosher":"","handicap":"Y","website":"","delivery":"ישיבה במסעדה","internal_link":"","is_new":"N","search_words":"basar_rest","latitude":"32.166316","longitude":"34.809613"}
,{"img":"logo_bistro56.jpg","name":"ביסטרו 56","desc":"בסטרו בשר דגים","area":"שרון","city":"הרצליה","address":"קניון ארנה - השונית 2","phone":"09-9565181","category":"מסעדה","type":"בשרים,דגים","hours":"א-ה: 12:00-24:00\nשישי: 10:00-כניסת שבת\nשבת: מוצ\"ש-לקוח אחרון","kosher":"כשר","handicap":"Y","website":"www.bistro56.co.il","delivery":"ישיבה במסעדה","internal_link":"","is_new":"N","search_words":"","latitude":"32.163681","longitude":"34.797692"}
,{"img":"logo_maxbrenner_new.jpg","name":"מקס ברנר ","desc":"בית קפה מתוקים וקינוחים","area":"שרון","city":"נתניה","address":"גבורי ישראל 17 א\"ת פולג","phone":"09-8858500","category":"מסעדה","type":"בית קפה,מתוקים-קינוחים","hours":"א-ה: 09:00 - לקוח אחרון\nשישי: 08:00- לקוח אחרון\nשבת: 09:00- לקוח אחרון","kosher":"","handicap":"N","website":"www.max-brenner.co.il","delivery":"ישיבה במסעדה,משלוחים","internal_link":"","is_new":"N","search_words":"מקס ברנר, שוקולד, חנות שוקולד, חלבי, sweets_delivery, CHOCOLAT","latitude":"32.282339","longitude":"34.861620"}
,{"img":"logo_cafecafe_2024.jpg","name":"קפה קפה","desc":"בית קפה","area":"שרון","city":"נתניה","address":"כביש החוף, מתחם תחנת דלק סונול","phone":"09-8825460","category":"בית קפה","type":"בית קפה","hours":"א-ה: \nשישי: \nשבת: ","kosher":"כשר","handicap":"N","website":"www.cafecafe.co.il","delivery":"ישיבה במסעדה","internal_link":"","is_new":"N","search_words":"קפה קפה, בית קפה","latitude":"32.324856","longitude":"34.865960"}
,{"img":"logo_moskato.png","name":"מוסקטו","desc":"תפריט איטלקי","area":"דרום","city":"נתיבות","address":"יוסף סמלו 123","phone":"057-9443324","category":"מסעדה","type":"איטלקי","hours":"א-ה: 09:00-24:00\nשישי: 09:00 - כניסת שבת\nשבת: מוצ\"ש - 24:00","kosher":"כשר למהדרין","handicap":"Y","website":"","delivery":"ישיבה במסעדה","internal_link":"","is_new":"N","search_words":"","latitude":"31.420391","longitude":"34.599831"}
,{"img":"logo_moon_new.jpg","name":"Moon","desc":"סושי","area":"מרכז","city":"תל אביב - יפו","address":"בוגרשוב 58","phone":"03-6291155","category":"מסעדה","type":"סושי-אסייאתי,צמחוני-טבעוני","hours":"א-ה: 12:00-24:30\nשישי: 12:00-24:30\nשבת: 12:00-24:30","kosher":"","handicap":"Y","website":"moon.rest.co.il","delivery":"ישיבה במסעדה","internal_link":"","is_new":"N","search_words":"מון","latitude":"32.075713","longitude":"34.772048"}
,{"img":"logo_moon_d_light.jpg","name":"Moon D-Light","desc":"סושי","area":"מרכז","city":"תל אביב - יפו","address":"פינסקר 30","phone":"03-6034422","category":"מסעדה","type":"סושי-אסייאתי","hours":"א-ה: 12:00-24:00\nשישי: 12:00-24:00\nשבת: 12:00-24:00","kosher":"","handicap":"Y","website":"moon-sushi.co.il","delivery":"ישיבה במסעדה,משלוחים","internal_link":"mcc_item_new,266444","is_new":"N","search_words":"מון","latitude":"32.075121","longitude":"34.771142"}
,{"img":"logo_cafecafe_2024.jpg","name":"קפה קפה","desc":"בית קפה","area":"צפון","city":"רמת ישי","address":"מרכז מסחרי קומה ב","phone":"04-6181226","category":"בית קפה","type":"בית קפה","hours":"א-ה: \nשישי: \nשבת: ","kosher":"כשר","handicap":"N","website":"www.cafecafe.co.il","delivery":"ישיבה במסעדה","internal_link":"","is_new":"N","search_words":"קפה קפה, בית קפה","latitude":"32.708228","longitude":"35.174875"}
,{"img":"logo_cafecafe_2024.jpg","name":"קפה קפה","desc":"בית קפה","area":"צפון","city":"קריית ביאליק","address":"הקריון - דרך עכו 192","phone":"04-8764100","category":"בית קפה","type":"בית קפה","hours":"א-ה: \nשישי: \nשבת: ","kosher":"","handicap":"N","website":"www.cafecafe.co.il","delivery":"ישיבה במסעדה","internal_link":"","is_new":"N","search_words":"קפה קפה, בית קפה","latitude":"32.842186","longitude":"35.088886"}
,{"img":"logo_sushia.png","name":"הסושייה","desc":"אסייתי","area":"מרכז","city":"פתח תקווה","address":"יעל רום 8","phone":"03-6226288","category":"מסעדה","type":"סושי-אסייאתי","hours":"א-ה: 11:00-24:00\nשישי: 11:00-24:00\nשבת: 12:00-24:00","kosher":"","handicap":"Y","website":"hasushia.com","delivery":"ישיבה במסעדה,משלוחים","internal_link":"mcc_item_new,266355","is_new":"N","search_words":"הסושייה","latitude":"32.100375","longitude":"34.881767"}
,{"img":"logo_medamas.jpg","name":"מדאמס","desc":"חומוסיה","area":"מרכז","city":"תל אביב - יפו","address":"ברזיל 17","phone":"03-7440244","category":"מסעדה","type":"מזרחי","hours":"א-ה: 10:00-21:00\nשישי: 10:00-16:00\nשבת: סגור","kosher":"כשר למהדרין","handicap":"Y","website":"","delivery":"ישיבה במסעדה","internal_link":"","is_new":"N","search_words":"חומוס, מדאמס, חומוסיה","latitude":"32.111390","longitude":"34.796645"}
,{"img":"logo_medamas.jpg","name":"מדאמס","desc":"חומוסיה","area":"מרכז","city":"תל אביב - יפו","address":"הדר יוסף 14","phone":"03-6443020","category":"מסעדה","type":"מזרחי","hours":"א-ה: 10:00-21:00\nשישי: 10:00-16:00\nשבת: סגור","kosher":"כשר למהדרין","handicap":"Y","website":"","delivery":"ישיבה במסעדה","internal_link":"","is_new":"N","search_words":"חומוס, מדאמס, חומוסיה","latitude":"32.109726","longitude":"34.818619"}
,{"img":"logo_runchhouse.png","name":"ראנץ האוס","desc":"בשרי","area":"אילת","city":"אילת","address":"טיילת רואיל ביץ החוף הצפוני","phone":"08-6368888","category":"מסעדה","type":"בשרים","hours":"א-ה: 12:00-24:00\nשישי: \nשבת: מוצ\"ש-11:00","kosher":"כשר","handicap":"Y","website":"ranchhouse.rest.co.il","delivery":"ישיבה במסעדה","internal_link":"","is_new":"N","search_words":"basar_rest, burger_search, rest_isrotel","latitude":"29.551181","longitude":"34.965207"}
,{"img":"logo_lacucina.png","name":"לה קוצ'ינה","desc":"מסעדה איטלקית","area":"אילת","city":"אילת","address":"טיילת רואיל ביץ החוף הצפוני","phone":"08-6368932","category":"מסעדה","type":"איטלקי","hours":"א-ה: 18:00-23:00\nשישי: \nשבת: ","kosher":"","handicap":"Y","website":"lacuccina.rest.co.il","delivery":"ישיבה במסעדה","internal_link":"","is_new":"N","search_words":"rest_isrotel","latitude":"29.551181","longitude":"34.965207"}
,{"img":"logo_cafecafe_2024.jpg","name":"קפה קפה","desc":"חלבי","area":"דרום","city":"באר שבע","address":"גרנד קניון שדרות טוביהו 125","phone":"08-9918698","category":"בית קפה","type":"בית קפה,חלבי","hours":"א-ה: 08:00-22:30\nשישי: 08:00-שעתיים לכניסת שבת\nשבת: מוצ\"ש - 23:00","kosher":"כשר מהדרין","handicap":"Y","website":"www.cafecafe.co.il/he/home/a/main","delivery":"ישיבה במסעדה","internal_link":"","is_new":"N","search_words":"קפה קפה, בית קפה","latitude":"31.252307","longitude":"34.769776"}
,{"img":"logo_duniarosa.png","name":"דוניה רוסה","desc":"בשרי ארגנטינאי","area":"צפון","city":"עין הוד","address":"עין הוד כפר האומנים","phone":"057-9345520","category":"מסעדה","type":"בשרים","hours":"א-ה: 12:00-23:00\nשישי: 12:00-23:00\nשבת: 12:00-21:00","kosher":"","handicap":"Y","website":"","delivery":"ישיבה במסעדה","internal_link":"","is_new":"N","search_words":"basar_rest","latitude":"32.701411","longitude":"34.979932"}
,{"img":"logo_deshen.jpg","name":"מחלבת דשן","desc":"חלבי","area":"מרכז","city":"תל אביב - יפו","address":"יגאל אלון 161","phone":"03-5417692","category":"מעדניה","type":"חלבי","hours":"א-ה: 08:30-20:00\nשישי: 08:00-14:00\nשבת: ","kosher":"כשר למהדרין","handicap":"Y","website":"deshen-dairy.co.il","delivery":"ישיבה במסעדה","internal_link":"","is_new":"N","search_words":"deli_halavi, chease_bakery_search","latitude":"32.078783","longitude":"34.798123"}
,{"img":"logo_sushia.png","name":"הסושייה","desc":"אסיאתי","area":"מרכז","city":"תל אביב - יפו","address":"אהרון בקר 8, מיקדו סנטר","phone":"03-7287666","category":"מסעדה","type":"סושי-אסייאתי","hours":"א-ה: 11:30-12:00\nשישי: 11:30-12:00\nשבת: 12:30-24:00","kosher":"","handicap":"Y","website":"hasushia.com","delivery":"ישיבה במסעדה","internal_link":"","is_new":"N","search_words":"הסושייה","latitude":"32.123151","longitude":"34.816404"}
,{"img":"logo_cafecafe_2024.jpg","name":"קפה קפה","desc":"בשרי","area":"צפון","city":"שפרעם","address":"כמאל ג'מבלאט 1","phone":"04-6237802","category":"בית קפה","type":"בית קפה","hours":"א-ה: 07:00-02:00\nשישי: 07:00-02:00\nשבת: 07:00-02:00","kosher":"","handicap":"Y","website":"www.cafecafe.co.il","delivery":"ישיבה במסעדה","internal_link":"","is_new":"N","search_words":"קפה קפה, בית קפה","latitude":"32.810198","longitude":"35.165822"}
,{"img":"logo_sushia.png","name":"הסושייה","desc":"אסיאתי","area":"מרכז","city":"רחובות","address":"המדע 8 פארק המדע","phone":"08-9577875","category":"מסעדה","type":"סושי-אסייאתי","hours":"א-ה: 11:30-24:00\nשישי: 11:30-24:00\nשבת: 11:30-24:00","kosher":"","handicap":"Y","website":"hasushia.com","delivery":"ישיבה במסעדה,משלוחים","internal_link":"mcc_item_new,266355","is_new":"N","search_words":"הסושייה","latitude":"31.904286","longitude":"34.808692"}
,{"img":"logo_cafecafe_2024.jpg","name":"קפה קפה","desc":"בית קפה מסעדה - בשרי","area":"צפון","city":"חיפה","address":"שדרות בן גוריון 31","phone":"04-9823077","category":"בית קפה","type":"בית קפה","hours":"א-ה: 08:00-לקוח אחרון\nשישי: 08:00-לקוח אחרון\nשבת: 08:00-לקוח אחרון","kosher":"","handicap":"Y","website":"www.cafecafe.co.il","delivery":"ישיבה במסעדה","internal_link":"","is_new":"N","search_words":"קפה קפה, בית קפה","latitude":"32.820197","longitude":"34.990672"}
,{"img":"logo_cafecafe_2024.jpg","name":"קפה קפה","desc":"בית קפה מסעדה- חלבי","area":"שרון","city":"הרצליה","address":"יורדי ים 1 - מרינה הרצליה","phone":"09-9560404","category":"בית קפה","type":"בית קפה,חלבי","hours":"א-ה: 08:00-לקוח אחרון\nשישי: 08:00-שעתיים לכניסת השבת\nשבת: מוצ\"ש-לקוח אחרון","kosher":"כשר","handicap":"Y","website":"www.cafecafe.co.il","delivery":"ישיבה במסעדה","internal_link":"","is_new":"N","search_words":"קפה קפה, בית קפה","latitude":"32.161106","longitude":"34.795915"}
,{"img":"logo_ministore.png","name":"מיניסטור פלאפל","desc":"ישראלי ביתי","area":"מרכז","city":"תל אביב - יפו","address":"אבן גבירול 30","phone":"050-6906909","category":"מסעדה","type":"מזרחי","hours":"א-ה: 08:00-20:00\nשישי: סגור\nשבת: סגור","kosher":"כשר למהדרין","handicap":"Y","website":"","delivery":"ישיבה במסעדה,משלוחים","internal_link":"mcc_item_new,266582","is_new":"N","search_words":"","latitude":"32.074975","longitude":"34.781798"}
,{"img":"logo_minnatomei.jpg","name":"מינה טומאי","desc":"אסיאתי","area":"מרכז","city":"תל אביב - יפו","address":"הארבעה 17","phone":"2750*","category":"מסעדה","type":"סושי-אסייאתי,צמחוני-טבעוני","hours":"א-ה: 12:00-24:20\nשישי: 12:00-24:20\nשבת: 12:00-24:20","kosher":"","handicap":"Y","website":"","delivery":"ישיבה במסעדה,משלוחים","internal_link":"mcc_item_new,266466","is_new":"N","search_words":"","latitude":"32.070403","longitude":"34.786396"}
,{"img":"logo_minnatomei.jpg","name":"מינה טומאי","desc":"אסיאתי","area":"צפון","city":"חיפה","address":"פלימן 8 מרכז קסטגו","phone":"2750*","category":"מסעדה","type":"סושי-אסייאתי","hours":"א-ה: 12:00-23:00\nשישי: 12:00-לקוח אחרון\nשבת: 12:00-לקוח אחרון","kosher":"","handicap":"Y","website":"","delivery":"ישיבה במסעדה,משלוחים","internal_link":"mcc_item_new,266466","is_new":"N","search_words":"mina tomay, מינה טומאי","latitude":"32.790246","longitude":"34.963529"}
,{"img":"logo_raffaello.jpg","name":"רפאלו","desc":"איטלקי","area":"צפון","city":"חיפה","address":"פלימן 8 מרכז קסטרא","phone":"6632*","category":"מסעדה","type":"איטלקי","hours":"א-ה: 12:00-23:00\nשישי: 12:00-24:00\nשבת: 12:00-24:00","kosher":"","handicap":"Y","website":"www.raffaello.co.il","delivery":"ישיבה במסעדה,משלוחים","internal_link":"mcc_item_new,266583","is_new":"N","search_words":"","latitude":"32.790246","longitude":"34.963529"}
,{"img":"logo_cafecafe_2024.jpg","name":"קפה קפה","desc":"בית קפה מסעדה- חלבי","area":"מרכז","city":"ראשון לציון","address":"סחרוב 21, קניון הזהב","phone":"03-6055328","category":"בית קפה","type":"בית קפה,חלבי","hours":"א-ה: 09:00-23:00\nשישי: 08:00-שעתיים לכניסת השבת\nשבת: מוצ\"ש - 24:00","kosher":"כשר","handicap":"Y","website":"www.cafecafe.co.il","delivery":"ישיבה במסעדה","internal_link":"","is_new":"N","search_words":"קפה קפה, בית קפה","latitude":"31.989917","longitude":"34.774349"}
,{"img":"logo_venia.png","name":"וניה ביסטרו","desc":"צרפתי ביסטרו","area":"צפון","city":"חיפה","address":"שער פלמר 1","phone":"04-6716272","category":"מסעדה","type":"צרפתי","hours":"א-ה: 12:00-01:00 שני סגור\nשישי: 13:00-01:00\nשבת: 13:00-01:00","kosher":"","handicap":"Y","website":"","delivery":"ישיבה במסעדה","internal_link":"","is_new":"N","search_words":"","latitude":"32.819791","longitude":"34.999997"}
,{"img":"logo_cafecafe_2024.jpg","name":"קפה קפה","desc":"בשרי","area":"דרום","city":"גדרה","address":"רחוב הבילויים 5","phone":"08-8694590","category":"בית קפה","type":"בית קפה","hours":"א-ה: 08:00-24:00\nשישי: 07:00-מוצ\"ש 24:00\nשבת: יום ו' 07:00-מוצ\"ש 24:00","kosher":"","handicap":"Y","website":"www.cafecafe.co.il/he/home/a/main","delivery":"ישיבה במסעדה","internal_link":"","is_new":"N","search_words":"קפה קפה, בית קפה","latitude":"31.814960","longitude":"34.773146"}
,{"img":"logo_cafecafe_2024.jpg","name":"קפה קפה","desc":"בשרי","area":"צפון","city":"חדרה","address":"קניון לב חדרה - שד' רוטשילד 40","phone":"04-6218162","category":"בית קפה","type":"בית קפה","hours":"א-ה: 08:00-23:00\nשישי: 08:00-15:00\nשבת: מוצ\"ש -23:00","kosher":"","handicap":"Y","website":"www.cafecafe.co.il","delivery":"ישיבה במסעדה","internal_link":"","is_new":"N","search_words":"קפה קפה, בית קפה","latitude":"32.437331","longitude":"34.921169"}
,{"img":"logo_cafecafe_2024.jpg","name":"קפה קפה","desc":"בשרי","area":"צפון","city":"חיפה","address":"גרנד קניון דרך שימחה גולן 54","phone":"04-8120155","category":"בית קפה","type":"בית קפה","hours":"א-ה: 08:00-לקוח אחרון\nשישי: 8:00-16:00\nשבת: 18:00-24:00","kosher":"","handicap":"Y","website":"www.cafecafe.co.il","delivery":"ישיבה במסעדה","internal_link":"","is_new":"N","search_words":"קפה קפה, בית קפה","latitude":"32.789570","longitude":"35.007663"}
,{"img":"logo_garage.png","name":"הגראז אוכלים שותים","desc":"בר וגריל","area":"מרכז","city":"ראשון לציון","address":"הרצל 151","phone":"03-6499600","category":"מסעדה","type":"בשרים","hours":"א-ה: 12:00-02:00\nשישי: 12:00-02:00\nשבת: 12:00-02:00","kosher":"","handicap":"Y","website":"www.garageburger.co.il","delivery":"ישיבה במסעדה","internal_link":"","is_new":"N","search_words":"basar_rest","latitude":"31.947022","longitude":"34.801847"}
,{"img":"logo_benny_dayag.png","name":"בני הדייג","desc":"איסוף עצמי","area":"מרכז","city":"ראשון לציון","address":"טיילת 19 חוף הים","phone":"03-5440050","category":"מסעדה","type":"בשרים,דגים","hours":"א-ה: 12:00-00:00\nשישי: 12:00-00:00\nשבת: 12:00-00:00","kosher":"","handicap":"Y","website":"www.rol.co.il/sites/benny-hadayag-rishon","delivery":"ישיבה במסעדה","internal_link":"mcc_item_new,266531","is_new":"N","search_words":"","latitude":"31.999006","longitude":"34.732572"}
,{"img":"teamim_default.jpg","name":"הדיואן","desc":"בשרי","area":"צפון","city":"מגאר","address":"כפר מג'אר","phone":"050-2281151","category":"מסעדה","type":"בשרים","hours":"א-ה: 11:30-23:30\nשישי: 11:30-23:30\nשבת: 11:30-23:30","kosher":"","handicap":"N","website":"","delivery":"ישיבה במסעדה","internal_link":"","is_new":"N","search_words":"","latitude":"32.890751","longitude":"35.405090"}
,{"img":"logo_benny_dayag.png","name":"בני הדייג","desc":"בשרים דגים פירות ים","area":"שרון","city":"הרצליה","address":"יורדי ים 1 - מרינה הרצליה","phone":"09-9557387","category":"מסעדה","type":"בשרים,דגים","hours":"א-ה: 09:00-23:30\nשישי: 09:00-23:30\nשבת: 09:00-23:30","kosher":"","handicap":"Y","website":"","delivery":"ישיבה במסעדה","internal_link":"","is_new":"N","search_words":"","latitude":"32.161106","longitude":"34.795915"}
,{"img":"logo_cafeoptimi.png","name":"קפה אופטימי","desc":"בית קפה מסעדה","area":"אילת","city":"אילת","address":"מרכז פנינת אילת (צמוד לקניון מול ים)","phone":"08-6376510","category":"בית קפה","type":"בית קפה,חלבי","hours":"א-ה: 09:00-02:00\nשישי: 09:00-02:00\nשבת: 09:00-02:00","kosher":"","handicap":"Y","website":"www.rol.co.il/sites/cafe-optimi","delivery":"ישיבה במסעדה","internal_link":"","is_new":"N","search_words":"קפה אופטימי, מסעדה חלבית","latitude":"29.550936","longitude":"34.954519"}
,{"img":"logo_cafecafe_2024.jpg","name":"קפה קפה","desc":"קפה מסעדה - חלבי","area":"צפון","city":"טירת כרמל","address":"אלמוג 23","phone":"04-6476476","category":"בית קפה","type":"בית קפה,חלבי","hours":"א-ה: 08:00-24:00\nשישי: 08:00-שעה לכניסת השבת\nשבת: מוצ\"ש - 24:00","kosher":"כשר","handicap":"Y","website":"www.cafecafe.co.il","delivery":"ישיבה במסעדה","internal_link":"","is_new":"N","search_words":"קפה קפה, בית קפה","latitude":"32.762127","longitude":"34.972980"}
,{"img":"logo_olive.png","name":"אוליב","desc":" סנדויץ בר, איטלקי מהיר","area":"מרכז","city":"תל אביב - יפו","address":"לילנבלום 24","phone":"03-5106680","category":"מסעדה","type":"איטלקי,כריכים-סלטים","hours":"א-ה: 24 שעות\nשישי: 24 שעות\nשבת: 24 שעות","kosher":"","handicap":"Y","website":"olive-rest.co.il","delivery":"ישיבה במסעדה","internal_link":"","is_new":"N","search_words":"","latitude":"32.062150","longitude":"34.770019"}
,{"img":"black_logo.png","name":"Black","desc":"רשת המבורגר כולל ארוחות עסקיות ","area":"צפון","city":"חיפה","address":"קניון סינמול","phone":"04-8422400","category":"מסעדה","type":"בשרים","hours":"א-ה: 12:00-לקוח אחרון\nשישי: 12:00-לקוח אחרון\nשבת: 12:00-לקוח אחרון","kosher":"","handicap":"Y","website":"blackbarburger.co.il","delivery":"ישיבה במסעדה","internal_link":"","is_new":"N","search_words":"basar_rest, burger_search, בלאק, המבורגרים","latitude":"32.792638","longitude":"35.037401"}
,{"img":"black_logo.png","name":"Black","desc":"רשת המבורגר כולל ארוחות עסקיות ","area":"דרום","city":"באר שבע","address":"ברוך קנטיקי 2","phone":"072-3940247","category":"מסעדה","type":"בשרים","hours":"א-ה: 12:00-לקוח אחרון\nשישי: 12:00-לקוח אחרון\nשבת: 12:00-לקוח אחרון","kosher":"","handicap":"Y","website":"blackbarburger.co.il","delivery":"ישיבה במסעדה","internal_link":"","is_new":"N","search_words":"בלאק בלק black basar_rest, burger_search","latitude":"31.224418","longitude":"34.801447"}
,{"img":"black_logo.png","name":"Black","desc":"רשת המבורגר כולל ארוחות עסקיות ","area":"מרכז","city":"ראשון לציון","address":"מתחם יס לפאנט","phone":"03-5449988","category":"מסעדה","type":"בשרים","hours":"א-ה: 12:00-לקוח אחרון\nשישי: 12:00-לקוח אחרון\nשבת: 12:00-לקוח אחרון","kosher":"","handicap":"N","website":"blackbarburger.co.il","delivery":"ישיבה במסעדה","internal_link":"","is_new":"N","search_words":"basar_rest, burger_search, בלאק, המבורגרים","latitude":"32.793944","longitude":"35.037933"}
,{"img":"black_logo.png","name":"Black","desc":"רשת המבורגר כולל ארוחות עסקיות ","area":"שרון","city":"רמת השרון","address":"סינמה סיטי","phone":"03-6991100","category":"מסעדה","type":"בשרים","hours":"א-ה: 12:00-לקוח אחרון\nשישי: 12:00-לקוח אחרון\nשבת: 12:00-לקוח אחרון","kosher":"","handicap":"N","website":"blackbarburger.co.il","delivery":"ישיבה במסעדה","internal_link":"","is_new":"N","search_words":"basar_rest, burger_search, בלאק, המבורגרים","latitude":"32.146626","longitude":"34.805223"}
,{"img":"black_logo.png","name":"Black","desc":"רשת המבורגר כולל ארוחות עסקיות ","area":"שרון","city":"כפר סבא","address":"מתחם G ויצמן 301","phone":"09-7671040","category":"מסעדה","type":"בשרים","hours":"א-ה: 12:00-לקוח אחרון\nשישי: 12:00-לקוח אחרון\nשבת: 12:00-לקוח אחרון","kosher":"","handicap":"N","website":"blackbarburger.co.il","delivery":"ישיבה במסעדה","internal_link":"","is_new":"N","search_words":"basar_rest, burger_search, בלאק, המבורגרים","latitude":"32.170561","longitude":"34.928656"}
,{"img":"logo_sinta.jpg","name":"סינטה","desc":"בשרי","area":"דרום","city":"אשדוד","address":"רחוב האורגים 11","phone":"08-8606606","category":"מסעדה","type":"בשרים","hours":"א-ה: 12:00-לקוח אחרון\nשישי: \nשבת: חצי שעה ממוצ\"ש-לקוח אחרון","kosher":"כשר","handicap":"Y","website":"www.rol.co.il/sites/sinta","delivery":"ישיבה במסעדה,משלוחים","internal_link":"mcc_item_new,266528","is_new":"N","search_words":"basar_rest","latitude":"31.811852","longitude":"34.659195"}
,{"img":"logo_cafecafe_2024.jpg","name":"קפה קפה","desc":"בית קפה","area":"צפון","city":"טבריה","address":"כפר טרוען מתחם צמח מול הכינרת","phone":"04-6221668","category":"בית קפה","type":"בית קפה","hours":"א-ה: 08:00-23:30\nשישי: 08:00-23:30\nשבת: 08:00-23:30","kosher":"","handicap":"Y","website":"www.cafecafe.co.il","delivery":"ישיבה במסעדה","internal_link":"","is_new":"N","search_words":"קפה קפה, בית קפה","latitude":"32.775137","longitude":"35.378344"}
,{"img":"logo_houseofdallal.jpg","name":"דלאל","desc":"בשר/דגים/איטלקי","area":"מרכז","city":"תל אביב - יפו","address":"שבזי 10","phone":"03-5109292","category":"מסעדת שף","type":"בשרים,דגים","hours":"א-ה: 12:00-24:30\nשישי: 9:00-24:30\nשבת: 09:00-24:30","kosher":"","handicap":"Y","website":"","delivery":"ישיבה במסעדה","internal_link":"mcc_item_new,272047","is_new":"N","search_words":"","latitude":"32.061219","longitude":"34.763447"}
,{"img":"logo_maxbrenner_new.jpg","name":"מקס ברנר","desc":"בית קפה מתוקים וקינוחים","area":"מרכז","city":"פתח תקווה","address":"השחם 30","phone":"","category":"מסעדה,מארזים במשלוח","type":"בית קפה,מתוקים-קינוחים","hours":"א-ה: 08:00-01:00\nשישי: 08:00-01:00\nשבת: 08:00-01:00","kosher":"כשר","handicap":"Y","website":"www.max-brenner.co.il","delivery":"ישיבה במסעדה,משלוחים","internal_link":"","is_new":"N","search_words":"מקס ברנר, שוקולד, חנות שוקולד, חלבי, sweets_delivery, CHOCOLAT","latitude":"32.086505","longitude":"34.858903"}
,{"img":"logo_siesta_cafe.jpg","name":"Siesata","desc":"בית קפה","area":"דרום","city":"באר שבע","address":"חייל ההנדסה 1/5","phone":"08-6650334","category":"בית קפה","type":"בית קפה","hours":"א-ה: 07:30-23:00\nשישי: 07:30-23:00\nשבת: 09:00-23:00","kosher":"","handicap":"Y","website":"www.rol.co.il/sites/siesta","delivery":"ישיבה במסעדה","internal_link":"","is_new":"N","search_words":"סייסטה, אספרסו בר","latitude":"31.243261","longitude":"34.812207"}
,{"img":"logo_benny_dayag.png","name":"בני הדייג","desc":"דגים ובשרים","area":"צפון","city":"חדרה","address":"כפר הים 1 גבעת אולגה","phone":"04-6444564","category":"מסעדה","type":"בשרים,דגים","hours":"א-ה: 10:00-00:00\nשישי: 10:00-00:00\nשבת: 10:00-00:00","kosher":"","handicap":"Y","website":"","delivery":"ישיבה במסעדה","internal_link":"","is_new":"N","search_words":"","latitude":"32.385293","longitude":"34.864500"}
,{"img":"logo_cafecafe_2024.jpg","name":"קפה קפה","desc":"בית קפה","area":"צפון","city":"עכו","address":"החרושת 2 קניון עזריאלי","phone":"04-6013618","category":"בית קפה","type":"בית קפה","hours":"א-ה: 08:30-24:00\nשישי: 08:30-שעת לכניסת השבת\nשבת: מוצ\"ש-24:00","kosher":"כשר למהדרין","handicap":"Y","website":"www.cafecafe.co.il","delivery":"ישיבה במסעדה","internal_link":"","is_new":"N","search_words":"קפה קפה, בית קפה","latitude":"32.923047","longitude":"35.081231"}
,{"img":"logo_cafecafe_2024.jpg","name":"קפה קפה","desc":"בית קפה","area":"צפון","city":"עפולה","address":"יהושוע חנקין 14 קניון ערים","phone":"04-6404083","category":"בית קפה","type":"בית קפה","hours":"א-ה: 08:00-24:00\nשישי: 08:00-24:00\nשבת: 17:30-24:00","kosher":"","handicap":"Y","website":"www.cafecafe.co.il","delivery":"ישיבה במסעדה","internal_link":"","is_new":"N","search_words":"קפה קפה, בית קפה","latitude":"32.604192","longitude":"35.294081"}
,{"img":"logo_hatzuk.jpg","name":"הצוק","desc":"שף","area":"צפון","city":"כפר ראש הנקרה","address":"אתר תיירות ראש הנקרה","phone":"04-6016849","category":"מסעדה","type":"בשרים,דגים","hours":"א-ה: 12:00-22:00\nשישי: 11:00- שעה לכניסת השבת\nשבת: מוצ\"ש לפי אירועים","kosher":"כשר למהדרין","handicap":"Y","website":"atzuk.rest.co.il","delivery":"ישיבה במסעדה","internal_link":"","is_new":"N","search_words":"","latitude":"33.086090","longitude":"35.113455"}
,{"img":"logo_bustan.jpg","name":"הבוסתן ","desc":"גן- קפה ומסעדה","area":"מרכז","city":"ראש העין","address":"פארק לב הארץ מול אפק","phone":"03-9011060","category":"מסעדה","type":"בית קפה","hours":"א-ה: 10:00-23:00\nשישי: 10:00-23:00\nשבת: 10:00-23:00","kosher":"","handicap":"Y","website":"www.busttan.co.il","delivery":"ישיבה במסעדה,איסוף עצמי,משלוחים","internal_link":"mcc_item_new,269404","is_new":"N","search_words":"","latitude":"32.098081","longitude":"34.947045"}
,{"img":"logo_itbarak.jpg","name":"יתברך","desc":"מטבח אתיופי","area":"דרום","city":"אשדוד","address":"קיבוץ גלויות 3","phone":"08-6759186","category":"מסעדה","type":"בשרים","hours":"א-ה: 12:00-22:30\nשישי: 09:00-14:00\nשבת: שעה ממוצ\"ש-22:30","kosher":"","handicap":"N","website":"","delivery":"ישיבה במסעדה","internal_link":"","is_new":"N","search_words":"","latitude":"31.806012","longitude":"34.652997"}
,{"img":"logo_cafecafe_2024.jpg","name":"קפה קפה ","desc":"בית קפה","area":"צפון","city":"טמרה","address":"טמרה","phone":"04-6574014","category":"בית קפה","type":"בית קפה","hours":"א-ה: 07:30-24:00\nשישי: 07:30-24:00\nשבת: 07:30-24:00","kosher":"","handicap":"Y","website":"www.cafecafe.co.il","delivery":"ישיבה במסעדה","internal_link":"","is_new":"N","search_words":"קפה קפה, בית קפה","latitude":"32.857397","longitude":"35.170993"}
,{"img":"logo_pancakehouse.jpg","name":"בית הפנקייק TLV","desc":"בית הפנקייק TLV","area":"מרכז","city":"תל אביב - יפו","address":"התערוכה 3 נמל ת\"א","phone":"03-5083611","category":"מסעדה","type":"בית קפה,חלבי,מתוקים-קינוחים","hours":"א-ה: ימים א'-ד': 10:00-22:00, יום ה': 10:00-00:00\nשישי: 09:00-00:00\nשבת: 09:00-00:00","kosher":"","handicap":"Y","website":"www.pancake.co.il","delivery":"ישיבה במסעדה","internal_link":"mcc_item_new,272176","is_new":"N","search_words":"","latitude":"32.097244","longitude":"34.775646"}
,{"img":"logo_cafecafe_2024.jpg","name":"קפה קפה","desc":"בית קפה","area":"צפון","city":"כפר יאסיף","address":"כפר יאסיף","phone":"04-6468827","category":"בית קפה","type":"בית קפה","hours":"א-ה: 08:00-24:00\nשישי: 08:00-24:00\nשבת: 08:00-24:00","kosher":"","handicap":"Y","website":"","delivery":"ישיבה במסעדה","internal_link":"","is_new":"N","search_words":"","latitude":"31.252584","longitude":"34.846767"}
,{"img":"logo_pastaloko.jpg","name":"פסטה לוקו","desc":"מסעדת שף איטלקית כשרה","area":"צפון","city":"חדרה","address":"הלל יפה 21","phone":"04-6936305","category":"מסעדה","type":"איטלקי,דגים,חלבי","hours":"א-ה: 09:30-22:00\nשישי: 09:00-14:00\nשבת: סגור","kosher":"כשר","handicap":"Y","website":"www.pastaloco.com/","delivery":"ישיבה במסעדה","internal_link":"","is_new":"N","search_words":"","latitude":"32.436919","longitude":"34.917014"}
,{"img":"logo_cafecafe_2024.jpg","name":"קפה קפה","desc":"בית קפה","area":"צפון","city":"מזרע","address":"מפגש מזרע","phone":"04-6706040","category":"בית קפה","type":"בית קפה","hours":"א-ה: 08:00-24:30\nשישי: 08:00-24:30\nשבת: 08:00-24:30","kosher":"","handicap":"N","website":"","delivery":"ישיבה במסעדה","internal_link":"","is_new":"N","search_words":"קפה קפה, בית קפה","latitude":"32.983651","longitude":"35.098915"}
,{"img":"logo_jonnyk.png","name":"ג'וני קריספי","desc":"סנדוויץ בר/סלטים","area":"שרון","city":"הרצליה","address":"שד' אבא אבן 18","phone":"","category":"מסעדה","type":"בשרים,כריכים-סלטים","hours":"א-ה: 11:00-24:00\nשישי: סגור\nשבת: מוצ\"ש-24:00","kosher":"כשר","handicap":"Y","website":"www.johnnycrispy.com","delivery":"ישיבה במסעדה","internal_link":"","is_new":"N","search_words":"burger_search","latitude":"32.162637","longitude":"34.807204"}
,{"img":"logo_raffaello.jpg","name":"רפאלו קריון","desc":"מסעדה איטלקית","area":"צפון","city":"קריית ביאליק","address":"דרך עכו 192","phone":"6632*","category":"מסעדה","type":"איטלקי","hours":"א-ה: 09:00-24:00\nשישי: 09:00-שעה לכניסת שבת\nשבת: מוצ\"ש-24:00","kosher":"כשר","handicap":"Y","website":"","delivery":"ישיבה במסעדה","internal_link":"mcc_item_new,266583","is_new":"N","search_words":"www.raffaello.co.il","latitude":"32.843348","longitude":"35.090841"}
,{"img":"logo_minnatomei.jpg","name":"מינה טומאי","desc":"אסיאתי","area":"צפון","city":"קריית ביאליק","address":"קניון קריון, דרך עכו 192","phone":"2750*","category":"מסעדה","type":"סושי-אסייאתי","hours":"א-ה: 11:00-24:00\nשישי: 11:00-01:00\nשבת: 11:00-01:00","kosher":"","handicap":"Y","website":"","delivery":"ישיבה במסעדה,משלוחים","internal_link":"mcc_item_new,266466","is_new":"N","search_words":"mina tomay","latitude":"32.843348","longitude":"35.090841"}
,{"img":"logo_camel.jpg","name":"כאמל","desc":"בר מסעדה ממוקם על חוף הים","area":"צפון","city":"חיפה","address":"דוד אלעזר 10","phone":"04-8522990","category":"מסעדה","type":"מזרחי","hours":"א-ה: 09:00-02:00\nשישי: 08:00-03:00\nשבת: 08:00-03:00","kosher":"","handicap":"N","website":"","delivery":"ישיבה במסעדה","internal_link":"","is_new":"N","search_words":"","latitude":"32.806201","longitude":"34.957298"}
,{"img":"logo_karnaf.jpg","name":"קרנף-סינמה סיטי ראשל\"צ","desc":"אוכל בשרי מהיר, טרי, טעים ובריא","area":"מרכז","city":"ראשון לציון","address":"ילדי טהרן 3 - סינמה סיטי","phone":"03-9414461","category":"מסעדה","type":"בשרים,כריכים-סלטים","hours":"א-ה: 11:00-23:00\nשישי: 11:00-24:00\nשבת: 11:00-24:00","kosher":"","handicap":"Y","website":"karnaf.com","delivery":"ישיבה במסעדה","internal_link":"","is_new":"N","search_words":"","latitude":"31.983961","longitude":"34.770877"}
,{"img":"logo_karnaf.jpg","name":"קרנף-אבן גבירול","desc":"אוכל בשרי מהיר, טרי, טעים ובריא","area":"מרכז","city":"תל אביב - יפו","address":"אבן גבירול 164","phone":"03-5468179","category":"מסעדה","type":"בשרים,כריכים-סלטים","hours":"א-ה: 11:30-04:30\nשישי: 11:30-04:30\nשבת: 11:30-04:30","kosher":"","handicap":"Y","website":"karnaf.com","delivery":"ישיבה במסעדה","internal_link":"","is_new":"N","search_words":"","latitude":"32.090671","longitude":"34.782924"}
,{"img":"logo_karnaf.jpg","name":"קרנף","desc":"אוכל בשרי מהיר, טרי, טעים ובריא","area":"שרון","city":"רמת השרון","address":"סוקולוב 72","phone":"03-5490049","category":"מסעדה","type":"בשרים,כריכים-סלטים","hours":"א-ה: 11:00-24:00\nשישי: 11:00-24:00\nשבת: 11:00-24:00","kosher":"כשר","handicap":"N","website":"","delivery":"ישיבה במסעדה","internal_link":"","is_new":"N","search_words":"","latitude":"32.146091","longitude":"34.838751"}
,{"img":"logo_bukeria.jpg","name":"בוקריה","desc":"מסעדת בראנצ'ים וארוחות בוקר","area":"מרכז","city":"פתח תקווה","address":"רבין 17 (Y סנטר)","phone":"03-7444760","category":"מסעדה","type":"בית קפה,חלבי,צמחוני-טבעוני","hours":"א-ה: 10:00-24:00\nשישי: 09:00-15:30\nשבת: שעה ממוצ\"ש-לקוח אחרון","kosher":"כשר","handicap":"Y","website":"bokeria.co.il","delivery":"ישיבה במסעדה","internal_link":"","is_new":"N","search_words":"","latitude":"32.087999","longitude":"34.861165"}
,{"img":"logo_onza.jpg","name":"אונזה","desc":"מסעדת שף ישראלית","area":"מרכז","city":"תל אביב - יפו","address":"רבי חנינא 3, שוק הפשפשים","phone":"03-6486060","category":"מסעדה","type":"בר-פאב,בשרים,ים תיכוני,מזרחי","hours":"א-ה: 18:00-23:00\nשישי: 12:00-23:00\nשבת: 12:00-23:00","kosher":"","handicap":"Y","website":"onza.co.il","delivery":"ישיבה במסעדה","internal_link":"","is_new":"N","search_words":"","latitude":"32.053008","longitude":"34.755683"}
,{"img":"logo_mashya.jpg","name":"משייה","desc":"מסעדת שף (לשעות הפעילות יש להתעדכן באתר המסעדה)","area":"מרכז","city":"תל אביב - יפו","address":"מנדלי מוכר ספרים 5","phone":"03-7500999","category":"מסעדה","type":"בשרים,דגים,מזרחי,מתוקים-קינוחים","hours":"א-ה: 09:30-23:00\nשישי: 09:30-15:00, 17:00-23:00\nשבת: 12:30-15:00, 18:15:-23:00","kosher":"","handicap":"Y","website":"mashya.co.il","delivery":"ישיבה במסעדה","internal_link":"","is_new":"N","search_words":"","latitude":"32.079344","longitude":"34.768773"}
,{"img":"logo_miazaki.jpg","name":"מיזאקי","desc":"אוכל רחוב יפני","area":"מרכז","city":"תל אביב - יפו","address":"מתחם שרונה","phone":"03-8009999","category":"מסעדה","type":"סושי-אסייאתי","hours":"א-ה: 11:30-22:00\nשישי: \nשבת: 11:30-22:00","kosher":"","handicap":"Y","website":"www.miazaki.co.il","delivery":"ישיבה במסעדה","internal_link":"","is_new":"N","search_words":"","latitude":"32.073111","longitude":"34.788325"}
,{"img":"logo_cafecafe_2024.jpg","name":"קפה קפה ","desc":"בית קפה-חלבי כשר","area":"שרון","city":"נתניה","address":"חוף סירונית","phone":"09-7444104","category":"בית קפה","type":"בית קפה","hours":"א-ה: 07:30-24:00\nשישי: 08:00-1530\nשבת: מוצ\"ש-24:00","kosher":"כשר","handicap":"Y","website":"","delivery":"ישיבה במסעדה","internal_link":"","is_new":"N","search_words":"קפה קפה, בית קפה","latitude":"32.330655","longitude":"34.848237"}
,{"img":"logo_rothschild.jpg","name":"קפה רוטשילד ","desc":"בית קפה","area":"צפון","city":"חיפה","address":"ששת הימים 1, טירת הכרמל","phone":"04-6112295","category":"בית קפה","type":"בית קפה","hours":"א-ה: 08:00-לקוח אחרון\nשישי: 08:00-שעה לכניסת השבת\nשבת: שעה ממוצ\"ש-לקוח אחרון","kosher":"כשר למהדרין","handicap":"Y","website":"","delivery":"ישיבה במסעדה","internal_link":"","is_new":"N","search_words":"","latitude":"32.825688","longitude":"35.070509"}
,{"img":"logo_prozdor.jpg","name":"פרוזדור","desc":"מסעדת המבורגרים","area":"מרכז","city":"תל אביב - יפו","address":"מנדלי מוכר ספרים 6","phone":"03-5233223","category":"מסעדה","type":"בשרים","hours":"א-ה: 12:00-24:00 לא כולל עסקיות לא כולל טייק וואי\nשישי: 12:00-24:00 לא כולל עסקיות לא כולל טייק וואי\nשבת: 12:00-24:00 לא כולל עסקיות לא כולל טייק וואי","kosher":"","handicap":"N","website":"www.prozdor.co.il","delivery":"ישיבה במסעדה","internal_link":"","is_new":"N","search_words":"basar_rest, burger_search","latitude":"32.079159","longitude":"34.768531"}
,{"img":"logo_biga.jpg","name":"ביגה ","desc":"בית קפה  מסעדה חלבית ","area":"שרון","city":"כפר סבא","address":"רפפורט 3 קניון כפר סבא הירוקה","phone":"09-8996221","category":"מסעדה","type":"בית קפה,חלבי","hours":"א-ה: 08:00-23:00\nשישי: 08:00- שעתיים לפני כניסת שבת\nשבת: מצאת השבת - 23:00","kosher":"כשר","handicap":"Y","website":"biga-bakery.co.il","delivery":"ישיבה במסעדה","internal_link":"mcc_item_new,325697","is_new":"N","search_words":"ביגה, בית קפה, מסעדה חלבית","latitude":"32.192452","longitude":"34.891902"}
,{"img":"logo_nimrod.jpg","name":"קפה נמרוד ","desc":"מסעדה גלילית","area":"מרכז","city":"תל אביב - יפו","address":"מתחם שרונה","phone":"03-6721344","category":"בית קפה","type":"בית קפה,חלבי","hours":"א-ה: 08:00-לקוח אחרון\nשישי: 08:00- לקוח אחרון\nשבת: 08:00- לקוח אחרון","kosher":"","handicap":"Y","website":"cafenimrod.com","delivery":"ישיבה במסעדה","internal_link":"","is_new":"N","search_words":"קפה נמרוד, בית קפה","latitude":"32.072900","longitude":"34.786662"}
,{"img":"logo_greg_cafe.jpg","name":"קפה גרג ","desc":"בית קפה ","area":"שרון","city":"כפר סבא","address":"ויצמן 207","phone":"09-7671683","category":"בית קפה","type":"סושי-אסייאתי","hours":"א-ה: 08:00-22:30\nשישי: 08:00-15:30\nשבת: 18:00-23:00","kosher":"","handicap":"Y","website":"www.gregcafe.co.il","delivery":"ישיבה במסעדה","internal_link":"mcc_item_new,304714","is_new":"N","search_words":"קפה גרג, בית קפה","latitude":"32.171698","longitude":"34.927919"}
,{"img":"black_logo.png","name":"Black","desc":"רשת המבורגר כולל ארוחות עסקיות ","area":"צפון","city":"חיפה","address":"גרנד קניון","phone":"04-8422400","category":"מסעדה","type":"בשרים","hours":"א-ה: 12:00- לקוח אחרון\nשישי: 12:00- לקוח אחרון\nשבת: 12:00- לקוח אחרון","kosher":"","handicap":"Y","website":"blackbarburger.co.il","delivery":"ישיבה במסעדה","internal_link":"","is_new":"N","search_words":"basar_rest, burger_search, בלאק, המבורגרים","latitude":"32.789711","longitude":"35.007822"}
,{"img":"logo_kahkai.jpg","name":"קאן קאי ","desc":"אסייתי","area":"מרכז","city":"ראש העין","address":"משה דיין 2","phone":"03-9021833","category":"מסעדה","type":"סושי-אסייאתי","hours":"א-ה: 10:00-22:00\nשישי: 10:00-15:00\nשבת: ","kosher":"כשר","handicap":"Y","website":"www.kankai.co.il/","delivery":"ישיבה במסעדה,משלוחים","internal_link":"mcc_item_new,322980","is_new":"N","search_words":"קאן קאי, מסעדת סושי","latitude":"32.092798","longitude":"34.966204"}
,{"img":"logo_elbalad.jpg","name":"שווארמה אל בלד","desc":"שווארמה ","area":"ירושלים","city":"אבו גוש","address":"השלום 84","phone":"02-6331717","category":"מסעדה","type":"ים תיכוני,מזרחי","hours":"א-ה: 10:00-00:00\nשישי: 10:00-00:00\nשבת: 10:00-00:00","kosher":"","handicap":"Y","website":"","delivery":"ישיבה במסעדה","internal_link":"","is_new":"N","search_words":"","latitude":"31.801945","longitude":"35.119531"}
,{"img":"logo_mikesplace.jpg","name":"מייקס פלייס","desc":"בר מסעדה הופעות חיות וספורט","area":"מרכז","city":"תל אביב - יפו","address":"הרברט סמואל 90","phone":"03-5106392","category":"בר-פאב","type":"בשרים,מקסיקני","hours":"א-ה: 08:00- לקוח אחרון\nשישי: 08:00- לקוח אחרון\nשבת: 08:00- לקוח אחרון","kosher":"","handicap":"Y","website":"","delivery":"ישיבה במסעדה","internal_link":"","is_new":"N","search_words":"basar_rest, burger_search","latitude":"32.077290","longitude":"34.766440"}
,{"img":"logo_mikesplace.jpg","name":"מייקס פלייס ","desc":"בר מסעדה הופעות חיות וספורט","area":"אילת","city":"אילת","address":"המים 1 - טיילת המלך שלמה","phone":"08-8649550","category":"בר-פאב","type":"בשרים,מקסיקני","hours":"א-ה: 13:00 - לקוח אחרון\nשישי: 13:00 - לקוח אחרון\nשבת: 13:00 - לקוח אחרון","kosher":"","handicap":"Y","website":"","delivery":"ישיבה במסעדה","internal_link":"","is_new":"N","search_words":"basar_rest, burger_search","latitude":"29.551339","longitude":"34.961188"}
,{"img":"logo_mikesplace.jpg","name":"מייקס פלייס","desc":"בר מסעדה הופעות חיות וספורט","area":"ירושלים","city":"ירושלים","address":"יפו 33","phone":"02-5023439","category":"בר-פאב","type":"בשרים,מקסיקני","hours":"א-ה: 12:00- לקוח אחרון\nשישי: 12:00 - כניסת שבת\nשבת: מצאת השבת - לקוח אחרון","kosher":"כשר","handicap":"Y","website":"","delivery":"ישיבה במסעדה","internal_link":"","is_new":"N","search_words":"basar_rest, burger_search","latitude":"31.781468","longitude":"35.220536"}
,{"img":"logo_jecki.jpg","name":"ג'קו דגים","desc":"דגים ומאכלי ים","area":"שרון","city":"נתניה","address":"גיבורי ישראל 7","phone":"09-8652878","category":"מסעדה","type":"דגים","hours":"א-ה: 12:00-23:00\nשישי: 12:00-23:00\nשבת: 12:00-23:00","kosher":"","handicap":"Y","website":"jacko.rest.co.il/","delivery":"ישיבה במסעדה","internal_link":"","is_new":"N","search_words":"","latitude":"32.278243","longitude":"34.860568"}
,{"img":"logo_cafecafe_2024.jpg","name":"קפה קפה ","desc":"מסעדה","area":"צפון","city":"כפר כנא","address":"כפר כנא - רחוב ראשי כניסה צפונית","phone":"04-9919185","category":"בית קפה","type":"בשרים,כריכים-סלטים","hours":"א-ה: 08:00-23:00\nשישי: 08:00-23:00\nשבת: 08:00-23:00","kosher":"","handicap":"Y","website":"www.cafecafe.co.il/he/home/a/main/","delivery":"ישיבה במסעדה","internal_link":"","is_new":"N","search_words":"קפה קפה, בית קפה","latitude":"32.748198","longitude":"35.343840"}
,{"img":"logo_inga.jpg","name":"אינגה בר","desc":"בר מסעדה","area":"שרון","city":"הרצליה","address":"גלגלי הפלדה 16","phone":"073-7592913","category":"בר-פאב","type":"בשרים,כריכים-סלטים","hours":"א-ה: 18:00-02:00\nשישי: 20:00-04:00\nשבת: 19:00-לקוח אחרון","kosher":"","handicap":"Y","website":"www.rol.co.il/sites/inga-bar","delivery":"ישיבה במסעדה","internal_link":"","is_new":"N","search_words":"","latitude":"32.164920","longitude":"34.809347"}
,{"img":"logo_pitalianplace.jpg","name":"pankina","desc":"מסעדת שף איטלקי חלבי ודגים","area":"מרכז","city":"תל אביב - יפו","address":"גורדון 39","phone":"03-6449793","category":"מסעדה","type":"איטלקי,דגים,חלבי","hours":"א-ה: 12:00-00:00\nשישי: 11:00- שעה לפני כניסת שבת\nשבת: שעה מצאת  השבת - 00:00","kosher":"כשר","handicap":"Y","website":"http://pankina.rest.co.il/","delivery":"ישיבה במסעדה","internal_link":"","is_new":"N","search_words":"","latitude":"32.081936","longitude":"34.773702"}
,{"img":"logo_shtroudl.jpg","name":"שטרודל ","desc":"מסעדה ים  תיכוני","area":"צפון","city":"חיפה","address":"בן גוריון 39","phone":"077-7004312","category":"מסעדה","type":"ים תיכוני","hours":"א-ה: 09:00-00:00\nשישי: 09:00-00:00\nשבת: 09:00-00:00","kosher":"","handicap":"Y","website":"www.shtroudl.rest.co.il/","delivery":"ישיבה במסעדה","internal_link":"","is_new":"N","search_words":"","latitude":"32.819428","longitude":"34.990361"}
,{"img":"logo_pene_pasta_bar.jpg","name":"פנה פסטה בר","desc":"מסעדה איטלקית","area":"מרכז","city":"תל אביב - יפו","address":"בוגרשוב 21","phone":"03-5281957","category":"מסעדה","type":"איטלקי,חלבי","hours":"א-ה: 09:00-00:00\nשישי: 09:00-16:00\nשבת: מצאת השבת - 00:00","kosher":"כשר","handicap":"Y","website":"www.rol.co.il/sites/pene-pasta-bar/","delivery":"ישיבה במסעדה","internal_link":"","is_new":"N","search_words":"","latitude":"32.077077","longitude":"34.769694"}
,{"img":"logo_nirvana.jpg","name":"נירוונה פרש קיטשן ","desc":"המקום המושלם על הים","area":"צפון","city":"חיפה","address":"חוף נירוונה","phone":"04-8501444","category":"מסעדה","type":"איטלקי,בית קפה,בשרים,דגים","hours":"א-ה: 08:00- לקוח אחרון\nשישי: 08:00- לקוח אחרון\nשבת: 08:00- לקוח אחרון","kosher":"","handicap":"Y","website":"www.freshkitchen.co.il/branches/","delivery":"ישיבה במסעדה","internal_link":"","is_new":"N","search_words":"","latitude":"32.799225","longitude":"34.956003"}
,{"img":"logo_fresh_kitchen.jpg","name":"פרש קיטשן - שוסטר","desc":"מסעדת בריאות ","area":"מרכז","city":"תל אביב - יפו","address":"אחימאיר 18","phone":"03-5472548","category":"מסעדה","type":"איטלקי,סושי-אסייאתי,דגים,חלבי","hours":"א-ה: 07:00-22:30\nשישי: 07:00- שעה לפני כניסת שבת\nשבת: חצי שעה מצאת השבת - אחרון הלקוחות","kosher":"למהדרין","handicap":"Y","website":"","delivery":"ישיבה במסעדה","internal_link":"","is_new":"N","search_words":"","latitude":"32.124773","longitude":"34.801578"}
,{"img":"logo_fresh_kitchen.jpg","name":"פרש קיטשן ","desc":"מסעדת בריאות ","area":"שרון","city":"הרצליה","address":"השונית 2 קניון ארנה","phone":"09-8321393","category":"מסעדה","type":"כריכים-סלטים,צמחוני-טבעוני","hours":"א-ה: 07:30 - לקוח אחרון\nשישי: 07:30-16:30\nשבת: חצי שעה מצאת השבת - לקוח אחרון","kosher":"למהדרין","handicap":"Y","website":"www.freshkitchen.co.il/","delivery":"ישיבה במסעדה","internal_link":"","is_new":"N","search_words":"","latitude":"32.158845","longitude":"34.795996"}
,{"img":"logo_alanwar.jpg","name":"מאפיית טאבון אלאנואר ","desc":"מאפייה ומטעמים מיוחדים שנאפים במקום","area":"צפון","city":"מעלות-תרשיחא","address":"כביש ראשי כיסרא - סמיע, שכונת חיילים משוחררים","phone":"04-6294954","category":"מאפיה וקונדיטוריה","type":"ים תיכוני,מתוקים-קינוחים","hours":"א-ה: 08:00-21:30\nשישי: 08:00-22:00\nשבת: 08:00-22:00","kosher":"","handicap":"Y","website":"","delivery":"ישיבה במסעדה","internal_link":"","is_new":"N","search_words":"מאפיה, מאפים, מתוקים, מלוחים, chease_bakery_search","latitude":"32.972320","longitude":"35.298528"}
,{"img":"logo_deda2.jpg","name":"DEDA","desc":"חוויה גאורגית מקורית ","area":"מרכז","city":"בת ים","address":" בן גוריון 61","phone":"1-700-700165","category":"מסעדה","type":"בשרים","hours":"א-ה: 10:30-00:00\nשישי: 08:00-00:00\nשבת: 08:00-00:00","kosher":"","handicap":"Y","website":"www.deda.co.il/","delivery":"ישיבה במסעדה","internal_link":"mcc_item_new,266490","is_new":"N","search_words":"","latitude":"32.024103","longitude":"34.740499"}
,{"img":"logo_frangelico.jpg","name":"פרנג'ליקו","desc":"מסעדה אסייתית","area":"צפון","city":"חיפה","address":"בן גוריון 22","phone":"04-6384480","category":"מסעדה","type":"סושי-אסייאתי,צמחוני-טבעוני","hours":"א-ה: 12:00-לקוח אחרון\nשישי: 12:00-לקוח אחרון\nשבת: 12:00-לקוח אחרון","kosher":"","handicap":"Y","website":"frangelicobar.com/","delivery":"ישיבה במסעדה","internal_link":"","is_new":"N","search_words":"פרנג'ליקו, sushi","latitude":"32.821148","longitude":"34.991159"}
,{"img":"logo_hagarage.jpg","name":"הגראז'","desc":"הגראז' - הכי טוב המבורגר","area":"מרכז","city":"תל אביב - יפו","address":"ראול ולנברג 24","phone":"036499600","category":"מסעדה","type":"בר-פאב,בשרים","hours":"א-ה: 11:00- לקוח אחרון\nשישי: 11:00- לקוח אחרון\nשבת: 11:00- לקוח אחרון","kosher":"","handicap":"Y","website":"www.garageburger.co.il/he/home","delivery":"ישיבה במסעדה","internal_link":"","is_new":"N","search_words":"basar_rest, burger_search","latitude":"32.111549","longitude":"34.838854"}
,{"img":"logo_susha.jpg","name":"סושה","desc":"סושי בר ","area":"מרכז","city":"תל אביב - יפו","address":"הרצל 12","phone":"1-700-55-10-20","category":"מסעדה","type":"סושי-אסייאתי","hours":"א-ה: 11:00-01:00\nשישי: 11:00-15:00\nשבת: חצי שעה מצאת השבת - 01:00","kosher":"כשר","handicap":"Y","website":"","delivery":"ישיבה במסעדה","internal_link":"","is_new":"N","search_words":"סושה","latitude":"32.062290","longitude":"34.770119"}
,{"img":"logo_izcafe.jpg","name":"IZ - CAFE","desc":"בית קפה חלבי - צרפתי - איטלקי ","area":"צפון","city":"זכרון יעקב","address":"השמורה 2","phone":"04-6444722","category":"בית קפה","type":"איטלקי,בית קפה,דגים,צרפתי","hours":"א-ה: 08:00-16:00\nשישי: 08:00-13:30\nשבת: ","kosher":"כשר","handicap":"Y","website":"izcafe.rest.co.il/","delivery":"ישיבה במסעדה","internal_link":"mcc_item_new,271914","is_new":"N","search_words":"איז קפה","latitude":"32.565927","longitude":"34.943076"}
,{"img":"logo_oldies.jpg","name":"אולדיס פנקיק בר ","desc":"בית פנקייק בסגנון דיינר אמריקאי","area":"שרון","city":"רעננה","address":"המלאכה 2 השדרה החדשה קניון רננים","phone":"09-8849960","category":"מסעדה","type":"מתוקים-קינוחים","hours":"א-ה: 08:30-22:30\nשישי: 08:30- שעה לפני כניסת שבת\nשבת: שעה לאחר צאת השבת - 23:00","kosher":"רבנות רעננה","handicap":"Y","website":"www.oldiespancake.co.il/","delivery":"ישיבה במסעדה,איסוף עצמי,משלוחים","internal_link":"mcc_item_new,269401","is_new":"N","search_words":"sweets_delivery, פנקייק, קינוחים","latitude":"32.197303","longitude":"34.877858"}
,{"img":"logo_shipudei_hatikva.png","name":"שיפודי התקווה","desc":"מסעדת בשרים","area":"מרכז","city":"רמת גן","address":"קניון איילון","phone":"03-5704242","category":"מסעדה","type":"בשרים","hours":"א-ה: 11:30-23:30\nשישי: 11:30-16:30\nשבת: מצאת השבת - 23:00","kosher":"למהדרין","handicap":"Y","website":"","delivery":"ישיבה במסעדה","internal_link":"","is_new":"N","search_words":"","latitude":"32.100338","longitude":"34.826772"}
,{"img":"logo_taam_reah.jpg","name":"תבליני טעם וריח חנות המפעל","desc":"חנות של תבלינים ותערובות תיבול לכל סוגי המאכלים","area":"מרכז","city":"פתח תקווה","address":"גיסין 96","phone":"03-9220939","category":"תבלינים ופיצוחים","type":"צמחוני-טבעוני","hours":"א-ה: 08:00 - 17:00\nשישי: \nשבת: ","kosher":"כשר למהדרין","handicap":"N","website":"www.tv-spices.co.il/","delivery":"משלוחים","internal_link":"mcc_item_new,269299","is_new":"N","search_words":"","latitude":"32.096652","longitude":"34.861418"}
,{"img":"logo_fresh_kitchen.jpg","name":"פרש קיטשן ","desc":"מסעדת בריאות","area":"ירושלים","city":"ירושלים","address":"דוד רמז 4","phone":"02-5856580","category":"מסעדה","type":"איטלקי,סושי-אסייאתי,דגים,חלבי","hours":"א-ה: 08:00-00:00\nשישי: 08:00- שעה לפני כניסת שבת\nשבת: מצאת השבת - 01:00","kosher":"כשר למהדרין","handicap":"Y","website":"/www.freshkitchen.co.il","delivery":"ישיבה במסעדה","internal_link":"","is_new":"N","search_words":"","latitude":"31.768974","longitude":"35.224427"}
,{"img":"logo_dim_sum_shop.jpg","name":"דים סאם שופ","desc":"מסעדה אסייתית - דיזנגוף סנטר","area":"מרכז","city":"תל אביב - יפו","address":"דיזנגוף 50","phone":"03-5392977","category":"מסעדה","type":"סושי-אסייאתי,צמחוני-טבעוני","hours":"א-ה: 10:00-22:00\nשישי: 10:00-15:00\nשבת: ","kosher":"","handicap":"Y","website":"","delivery":"ישיבה במסעדה","internal_link":"","is_new":"N","search_words":"דים סאם","latitude":"32.075346","longitude":"34.775395"}
,{"img":"logo_italkia_tachana.jpg","name":"איטלקיה בתחנה ","desc":"מסעדה איטלקית","area":"מרכז","city":"תל אביב - יפו","address":"נווה צדק, מתחם התחנה","phone":"03-9331922","category":"מסעדה","type":"איטלקי,חלבי","hours":"א-ה: 12:00-00:00\nשישי: 09:00-00:00\nשבת: 10:00-00:00","kosher":"","handicap":"Y","website":"www.italiantlv.co.il/","delivery":"ישיבה במסעדה","internal_link":"","is_new":"N","search_words":"","latitude":"32.059037","longitude":"34.761517"}
,{"img":"black_logo.png","name":"Black","desc":"רשת המבורגר כולל ארוחות עסקיות ","area":"צפון","city":"זכרון יעקב","address":"קניון מול זכרון","phone":"04-6671719","category":"מסעדה","type":"בשרים","hours":"א-ה: 12:00-00:00\nשישי: 12:00-02:00\nשבת: 11:30-01:00","kosher":"","handicap":"Y","website":"blackbarburger.co.il","delivery":"ישיבה במסעדה","internal_link":"","is_new":"N","search_words":"basar_rest, burger_search, בלאק, המבורגרים","latitude":"32.569263","longitude":"34.933391"}
,{"img":"logo_claro.jpg","name":"קלארו","desc":"מסעדת שף עם תפריט עכשוי ועדכני","area":"מרכז","city":"תל אביב - יפו","address":"דוד אלעזר 30 - מתחם שרונה","phone":"03-6017777","category":"מסעדה","type":"טאפסים,ים תיכוני","hours":"א-ה: 12:00-23:00\nשישי: 09:00-23:00\nשבת: 09:00-23:00","kosher":"","handicap":"Y","website":"www.clarotlv.com","delivery":"ישיבה במסעדה","internal_link":"","is_new":"N","search_words":"","latitude":"32.071203","longitude":"34.788069"}
,{"img":"logo_gelato.jpg","name":"Gelato Factory","desc":"גלידה טובה ומשובחת במבחר טעמים","area":"מרכז","city":"תל אביב - יפו","address":"מתחם שרונה","phone":"","category":"גלידריה מתוקים וקינוחים","type":"מתוקים-קינוחים","hours":"א-ה: 09:00-22:00\nשישי: 09:00-22:00\nשבת: 09:00-22:00","kosher":"","handicap":"Y","website":"","delivery":"ישיבה במסעדה","internal_link":"","is_new":"N","search_words":"גלידה,, קינוחים, sweets_delivery","latitude":"32.071399","longitude":"34.786576"}
,{"img":"logo_cafecafe_2024.jpg","name":"קפה קפה ","desc":"בית קפה מסעדה","area":"צפון","city":"שדי תרומות","address":"צומת רוויה עמק המעיינות","phone":"04-6584648","category":"בית קפה","type":"איטלקי,בית קפה","hours":"א-ה: 08:00-23:00\nשישי: 08:00-14:00\nשבת: חצי שעה מצאת השבת - 23:30","kosher":"כשר למהדרין","handicap":"Y","website":"www.cafecafe.co.il/he/home/a/main/","delivery":"ישיבה במסעדה","internal_link":"","is_new":"N","search_words":"קפה קפה, בית קפה","latitude":"32.440898","longitude":"35.484204"}
,{"img":"logo_cafecafe_2024.jpg","name":"קפה קפה ","desc":"בית קפה מסעדה חלבי ","area":"צפון","city":"טבריה","address":"יהודה הלוי 1","phone":"04-6723400","category":"בית קפה","type":"איטלקי,חלבי,כריכים-סלטים","hours":"א-ה: 08:30-22:00\nשישי: 08:30-13:30\nשבת: מצאת השבת - 23:00","kosher":"כשר למהדרין","handicap":"Y","website":"www.cafecafe.co.il/he/home/a/main/","delivery":"ישיבה במסעדה","internal_link":"","is_new":"N","search_words":"קפה קפה, בית קפה","latitude":"32.790512","longitude":"35.533797"}
,{"img":"logo_nimrod.jpg","name":"קפה נמרוד","desc":"בית קפה מסעדה חלבי","area":"צפון","city":"יסוד המעלה","address":"גליליון מרקט צמת כח","phone":"04-8716407","category":"בית קפה","type":"בית קפה,חלבי,כריכים-סלטים","hours":"א-ה: 09:00-23:00\nשישי: 09:00-23:00\nשבת: 08:00-00:00","kosher":"","handicap":"Y","website":"www.cafenimrod.com/","delivery":"ישיבה במסעדה","internal_link":"","is_new":"N","search_words":"קפה נמרוד, בית קפה","latitude":"33.115621","longitude":"35.573585"}
,{"img":"logo_sandwich_toast_bar.jpg","name":"סנדוויץ טוסט BAR","desc":"סנדוויץ בר בשרי","area":"צפון","city":"טירת כרמל","address":"פטיש 2","phone":"04-8881485","category":"מסעדה","type":"בשרים","hours":"א-ה: 09:00-21:00\nשישי: \nשבת: ","kosher":"כשר","handicap":"Y","website":"toast-sandwich-bar.business.site/","delivery":"ישיבה במסעדה","internal_link":"","is_new":"N","search_words":"","latitude":"32.767513","longitude":"34.967290"}
,{"img":"logo_cafecafe_2024.jpg","name":"קפה קפה ","desc":"בית קפה - בשרי ","area":"צפון","city":"עפולה","address":"החרט 8","phone":"04-8384423","category":"בית קפה","type":"בית קפה,בשרים","hours":"א-ה: 07:30-00:30\nשישי: 07:30-00:30\nשבת: 07:30-00:30","kosher":"","handicap":"Y","website":"www.cafecafe.co.il/he/home/a/main","delivery":"ישיבה במסעדה","internal_link":"","is_new":"N","search_words":"קפה קפה, בית קפה","latitude":"32.633736","longitude":"35.335934"}
,{"img":"logo_soft.jpg","name":"Soft  Cookies","desc":"דוכן עוגיות שוקולד וקפה","area":"מרכז","city":"תל אביב - יפו","address":"קלמן מגן 3","phone":"03-7233088","category":"גלידריה מתוקים וקינוחים,מאפיה וקונדיטוריה","type":"מתוקים-קינוחים","hours":"א-ה: 09:00-22:30\nשישי: 09:00- חצי לפני כניסת שבת\nשבת: 09:00-23:00","kosher":"","handicap":"Y","website":"","delivery":"ישיבה במסעדה","internal_link":"","is_new":"N","search_words":"סופט קוקיס, עוגיות, קינוחים soft cookies, sweets_delivery","latitude":"32.071399","longitude":"34.786576"}
,{"img":"logo_milka.jpg","name":"מילקה","desc":"בית קפה מסעדה (לא מכובד במילקה בר)","area":"צפון","city":"קריית ביאליק","address":"דרך עכו 192","phone":"04-8774343","category":"מסעדה","type":"איטלקי,בית קפה,חלבי,מתוקים-קינוחים","hours":"א-ה: 09:00- לקוח אחרון\nשישי: 09:00- לקוח אחרון\nשבת: 10:00-לקוח אחרון","kosher":"","handicap":"Y","website":"www.rest.co.il/rest/80034530/","delivery":"ישיבה במסעדה","internal_link":"","is_new":"N","search_words":"מילקה, קפה בית קפה","latitude":"32.843515","longitude":"35.090770"}
,{"img":"logo_avazim.jpg","name":"אווזים","desc":"מסעדת בשרים","area":"מרכז","city":"ראשון לציון","address":"המאה ועשרין 4 מתחם יס פלנט","phone":"073-7585408","category":"מסעדה","type":"בשרים,דגים,ים תיכוני,מזרחי","hours":"א-ה: 11:00-01:00\nשישי: 11:00-  שעה לפני כניסת שבת\nשבת: מצאת השבת - 01:00","kosher":"כשר","handicap":"Y","website":"haavazim.com/","delivery":"ישיבה במסעדה","internal_link":"mcc_item_new,266245","is_new":"N","search_words":"basar_rest","latitude":"31.980537","longitude":"34.748823"}
,{"img":"logo_avazim.jpg","name":"אווזים","desc":"מסעדת בשרים","area":"מרכז","city":"תל אביב - יפו","address":"יורדי הסירה 3","phone":"03-5440647","category":"גלידריה מתוקים וקינוחים","type":"בשרים,דגים,ים תיכוני,מזרחי","hours":"א-ה: 11:00-03:00\nשישי: 11:00-03:00\nשבת: 11:00-03:00","kosher":"","handicap":"Y","website":"haavazim.com/","delivery":"ישיבה במסעדה","internal_link":"mcc_item_new,266245","is_new":"N","search_words":"basar_rest","latitude":"32.096272","longitude":"34.774351"}
,{"img":"logo_hamosad.jpg","name":"המוסד לסנדוויצ'ים","desc":"מזללה של סנדוויצ'ים והמבורגרים","area":"מרכז","city":"תל אביב - יפו","address":"אבן גבירול 67","phone":"03-5629896","category":"מסעדה","type":"בשרים","hours":"א-ה: 12:00-02:00\nשישי: 12:00-05:00\nשבת: 12:00-03:00","kosher":"","handicap":"N","website":"he-il.facebook.com/mosadsandwich/","delivery":"ישיבה במסעדה","internal_link":"","is_new":"N","search_words":"burger_search","latitude":"32.079270","longitude":"34.781130"}
,{"img":"logo_cafecafe_2024.jpg","name":"קפה קפה ","desc":"בית קפה מסעדה חלבית ","area":"צפון","city":"נהרייה","address":"שד' הגעתון 35","phone":"049818020","category":"בית קפה","type":"איטלקי,בית קפה,חלבי,כריכים-סלטים","hours":"א-ה: 08:00-00:00\nשישי: 08:00- שעה לפני כניסת שבת\nשבת: שעה מצאת השבת - 00:00","kosher":"כשר בד\"צ","handicap":"Y","website":"www.cafecafe.co.il/he/home/a/main/","delivery":"ישיבה במסעדה","internal_link":"","is_new":"N","search_words":"קפה קפה, בית קפה","latitude":"33.006579","longitude":"35.093160"}
,{"img":"logo_wookaway.jpg","name":"Wok a Way","desc":"נודלס בר כשר","area":"שרון","city":"רמת השרון","address":"סוקולוב 72","phone":"03-6992282","category":"מסעדה","type":"סושי-אסייאתי","hours":"א-ה: 11:00-23:00\nשישי: 11:00-15:00\nשבת: מצאת השבת - 23:00","kosher":"כשר","handicap":"Y","website":"wokaway.co.il/","delivery":"ישיבה במסעדה,משלוחים","internal_link":"mcc_item_new,266465","is_new":"N","search_words":"ווק אווי, sushi","latitude":"32.146092","longitude":"34.838749"}
,{"img":"logo_raffaello.jpg","name":"רפאלו","desc":"איטלקי ","area":"צפון","city":"עין שמר","address":"עין שמר","phone":"6632*","category":"מסעדה","type":"איטלקי,בית קפה,חלבי,צמחוני-טבעוני","hours":"א-ה: 12:00-23:00\nשישי: 12:00-23:00\nשבת: 12:00-23:00","kosher":"","handicap":"Y","website":"www.raffaello.co.il","delivery":"ישיבה במסעדה,משלוחים","internal_link":"mcc_item_new,266583","is_new":"N","search_words":"","latitude":"32.461917","longitude":"35.006730"}
,{"img":"logo_sushia.png","name":"הסושייה","desc":"מסעדה אסייתית ","area":"מרכז","city":"בת ים","address":"בן גוריון 47","phone":"03-6516511","category":"מסעדה","type":"סושי-אסייאתי","hours":"א-ה: 11:30-00:00\nשישי: 11:30-00:00\nשבת: 11:30-00:00","kosher":"","handicap":"Y","website":"hasushia.com/he/","delivery":"ישיבה במסעדה,משלוחים","internal_link":"mcc_item_new,266355","is_new":"N","search_words":"הסושייה","latitude":"32.026109","longitude":"34.741337"}
,{"img":"logo_sunsetblvd.jpg","name":"Sunset BLVD","desc":"בר מסעדה אמריקאי ","area":"דרום","city":"אשדוד","address":"מרטין בובר 1","phone":"08-9450500","category":"מסעדה","type":"בר-פאב,בשרים,דגים,חלבי,כריכים-סלטים,מתוקים-קינוחים","hours":"א-ה: 12:00-01:00\nשישי: 12:00-02:00\nשבת: 12:00-02:00","kosher":"","handicap":"Y","website":"sunsetblvd.co.il/","delivery":"ישיבה במסעדה","internal_link":"","is_new":"N","search_words":"basar_rest","latitude":"31.812568","longitude":"34.641104"}
,{"img":"logo_taipei.jpg","name":"טאיפיי","desc":"מסעדת אסייתית","area":"צפון","city":"חיפה","address":"יפה נוף 108","phone":"04-8383800","category":"מסעדה","type":"סושי-אסייאתי","hours":"א-ה: 12:00-22:30\nשישי: 12:00-22:30\nשבת: 12:00-22:30","kosher":"","handicap":"Y","website":"taipei.rest.co.il/","delivery":"ישיבה במסעדה","internal_link":"","is_new":"N","search_words":"","latitude":"32.805540","longitude":"34.988954"}
,{"img":"logo_june71.jpg","name":"יוני 71 - שווארמה  וגריל בשרים","desc":"שיפודים, מזרחי וסלטים","area":"שרון","city":"רמת השרון","address":"סוקולוב 71","phone":"03-6316161","category":"מסעדה","type":"בשרים,ים תיכוני","hours":"א-ה: 09:00-00:00\nשישי: 09:00-17:00\nשבת: ","kosher":"כשר רבנות צוהר","handicap":"Y","website":"yoni71.co.il/","delivery":"ישיבה במסעדה,משלוחים","internal_link":"mcc_item_new,266463","is_new":"N","search_words":"","latitude":"32.146298","longitude":"34.838505"}
,{"img":"logo_cafecafe_2024.jpg","name":"קפה קפה ","desc":"בית קפה מסעדה ","area":"דרום","city":"אשדוד","address":"ביג פאשן אשדוד","phone":"052-7030187","category":"בית קפה","type":"בית קפה,חלבי,כריכים-סלטים","hours":"א-ה: 09:00-00:00\nשישי: 09:00-15:00\nשבת: שעה מצאת השבת- 00:00","kosher":"","handicap":"Y","website":"www.cafecafe.co.il/he/home/a/main/","delivery":"ישיבה במסעדה","internal_link":"","is_new":"N","search_words":"קפה קפה, בית קפה","latitude":"31.776046","longitude":"34.664251"}
,{"img":"logo_cafecafe_2024.jpg","name":"קפה קפה ","desc":"בית קפה מסעדה בשרי","area":"צפון","city":"עין המפרץ","address":"עין המפרץ תחנת דלק יעד","phone":"04-8669160","category":"בית קפה","type":"בית קפה,בשרים","hours":"א-ה: 07:30-23:00\nשישי: 07:30-23:00\nשבת: 07:30-23:00","kosher":"","handicap":"Y","website":"www.cafecafe.co.il/he/home/a/main/","delivery":"ישיבה במסעדה","internal_link":"","is_new":"N","search_words":"קפה קפה, בית קפה","latitude":"32.902581","longitude":"35.093040"}
,{"img":"logo_nagisa.jpg","name":"נגיסה","desc":"סושיה מטבח אסיאתי ","area":"צפון","city":"עפולה","address":"יהושע חנקין 14","phone":"04-6657977","category":"מסעדה","type":"סושי-אסייאתי,צמחוני-טבעוני","hours":"א-ה: 11:00-23:00\nשישי: 10:30-15:30\nשבת: 20:00-00:00","kosher":"כשר למהדרין","handicap":"Y","website":"nagisasushi.co.il/","delivery":"ישיבה במסעדה","internal_link":"","is_new":"N","search_words":"נגיסה","latitude":"32.604206","longitude":"35.294089"}
,{"img":"logo_fatvinny_2024.jpg","name":"פאט ויני","desc":"איטלקי ","area":"שרון","city":"נתניה","address":"מפי 5","phone":"2730*","category":"מסעדה","type":"איטלקי","hours":"א-ה: 12:00-23:00\nשישי: 12:00-23:00\nשבת: 12:00-23:00","kosher":"","handicap":"Y","website":"www.fatvinny.com/","delivery":"ישיבה במסעדה,משלוחים","internal_link":"mcc_item_new,266580","is_new":"N","search_words":"פאט ויניי, דיינר איטלקי, חלבי, בשרי","latitude":"32.275329","longitude":"34.862889"}
,{"img":"logo_mucha.jpg","name":"Mucha ","desc":"פיצרייה וסלטים","area":"מרכז","city":"תל אביב - יפו","address":"אבן גבירול 19","phone":"077-6037560","category":"מסעדה","type":"איטלקי,כריכים-סלטים","hours":"א-ה: 12:00-00:00\nשישי: \nשבת: 18:00-01:00","kosher":"","handicap":"Y","website":"mucha.business.site/","delivery":"ישיבה במסעדה","internal_link":"","is_new":"N","search_words":"פיצה, pizza_search","latitude":"32.073198","longitude":"34.781654"}
,{"img":"logo_klaracoffe.jpg","name":"קפה קלרה","desc":"מסעדה איטלקית חלבית","area":"צפון","city":"קצרין","address":"רחוב 6 אזור תעשיה","phone":"04-8329457","category":"בית קפה","type":"איטלקי,בית קפה,חלבי,כריכים-סלטים","hours":"א-ה: 09:30-22:00\nשישי: 09:00-15:00\nשבת: ","kosher":"למהדרין","handicap":"Y","website":"cafeklara.rest.co.il/","delivery":"ישיבה במסעדה","internal_link":"","is_new":"N","search_words":"קפה קלרה, בית קפה","latitude":"32.990328","longitude":"35.708470"}
,{"img":"logo_55.jpg","name":"55 אוכל ובירה","desc":"אוכל, בירה וחברים - כולל ארוחות עסקיות","area":"שרון","city":"כפר סבא","address":"עתיר ידע 4","phone":"09-8870903","category":"בר-פאב","type":"בר-פאב","hours":"א-ה: א', ב' 18:00- לקוח אחרון, ג'-ה' 17:00-לקוח אחרון\nשישי: 18:00- לקוח אחרון\nשבת: 13:00- לקוח אחרון","kosher":"","handicap":"Y","website":"55beers.co.il/","delivery":"ישיבה במסעדה","internal_link":"","is_new":"N","search_words":"פאב 55, בר מסעדת בשרים","latitude":"32.165583","longitude":"34.928556"}
,{"img":"logo_55.jpg","name":"55 אוכל ובירה","desc":"אוכל, בירה וחברים - כולל ארוחות עסקיות","area":"ירושלים","city":"ירושלים","address":"נעמי 4 יס פלנט","phone":"02-5435775","category":"בר-פאב","type":"בר-פאב,בשרים,כריכים-סלטים","hours":"א-ה: א', ב' 18:00- לקוח אחרון, ג'-ה' 17:00-לקוח אחרון\nשישי: 18:00-לקוח אחרון\nשבת: 13:00- לקוח אחרון","kosher":"","handicap":"Y","website":"","delivery":"ישיבה במסעדה","internal_link":"","is_new":"N","search_words":"בר, בירה אוכל חברים, מסעדת בשרים","latitude":"31.762305","longitude":"35.225675"}
,{"img":"black_logo.png","name":"Black","desc":"רשת המבורגר כולל ארוחות עסקיות ","area":"מרכז","city":"גבעתיים","address":"יצחק רבין 53 קניון עזריאלי","phone":"03-7769494","category":"מסעדה","type":"בשרים","hours":"א-ה: 12:00-לקוח אחרון\nשישי: 12:00 - לקוח אחרון\nשבת: 12:00- לקוח אחרון","kosher":"","handicap":"Y","website":"blackbarburger.co.il","delivery":"ישיבה במסעדה","internal_link":"","is_new":"N","search_words":"basar_rest, burger_search","latitude":"32.066595","longitude":"34.810150"}
,{"img":"logo_templebar.jpg","name":"Temple Bar","desc":"בר אירי ","area":"שרון","city":"רמת השרון","address":"סינמה סיטי גלילות","phone":"03-6995536","category":"בר-פאב","type":"בר-פאב","hours":"א-ה: א', ב' 18:00- לקוח אחרון, ג'-ה' 17:00-לקוח אחרון\nשישי: 18:00- לקוח אחרון\nשבת: 13:00 - לקוח אחרון","kosher":"","handicap":"Y","website":"templebar.co.il/?ContentID=2","delivery":"ישיבה במסעדה","internal_link":"","is_new":"N","search_words":"","latitude":"32.146421","longitude":"34.804749"}
,{"img":"logo_havat_tavlinim.jpg","name":"חוות התבלינים בגלבוע","desc":"מסעדה ישראלית ים תיכוני","area":"צפון","city":"מ.א. גלבוע","address":"דרך נוף הגלבוע, כביש 667","phone":"04-6531093","category":"תבלינים ופיצוחים","type":"בית קפה","hours":"א-ה: ב'- ה' 12:00-22:00\nשישי: 09:00-11:00 - ארוחת בוקר, 12:00-22:00\nשבת: 12:00-22:00","kosher":"","handicap":"Y","website":"www.herb-farm.co.il/","delivery":"ישיבה במסעדה","internal_link":"","is_new":"N","search_words":"תבלינים","latitude":"32.533730","longitude":"35.356950"}
,{"img":"logo_cafecafe_2024.jpg","name":"קפה קפה ","desc":"מסעדה בשרי ","area":"צפון","city":"קריית חיים תאי דואר","address":"אח\"י אילת 55","phone":"04-8404444","category":"בית קפה","type":"בית קפה,בשרים","hours":"א-ה: 07:30-00:00\nשישי: פתוח  24 שעות  יממה\nשבת: פתוח  24 שעות  יממה","kosher":"","handicap":"Y","website":"cafecafeeilat.rest.co.il","delivery":"ישיבה במסעדה","internal_link":"","is_new":"N","search_words":"קפה קפה, בית קפה","latitude":"32.818554","longitude":"35.074970"}
,{"img":"logo_cafecafe_2024.jpg","name":"קפה קפה ","desc":"מסעדה חלבי ","area":"מרכז","city":"מגדל העמק","address":"שאול עמור 77","phone":"04-6023535","category":"בית קפה","type":"בית קפה,חלבי,כריכים-סלטים,מתוקים-קינוחים","hours":"א-ה: 08:00-23:30\nשישי: 08:00 - שעתיים לפני כניסת שבת\nשבת: שעה לאחר צאת השבת - לקוח אחרון","kosher":"כשר","handicap":"Y","website":"cafecafeeilat.rest.co.il","delivery":"ישיבה במסעדה","internal_link":"","is_new":"N","search_words":"קפה קפה, בית קפה","latitude":"32.678267","longitude":"35.243565"}
,{"img":"logo_jaja.jpg","name":"JAJA","desc":"בר אוכל איטלקי ","area":"מרכז","city":"ראשון לציון","address":"רוטשילד 86","phone":"077-9386330","category":"מסעדה","type":"איטלקי","hours":"א-ה: 18:00-02:00לא כולל happy hour\nשישי: 11:00-04:00 לא כולל happy hour\nשבת: 17:00-02:00לא כולל happy hour","kosher":"","handicap":"Y","website":"","delivery":"ישיבה במסעדה","internal_link":"mcc_item_new,266244","is_new":"N","search_words":"גה גה","latitude":"31.964436","longitude":"34.795367"}
,{"img":"logo_olive_bistro.jpg","name":"אוליב  קונור","desc":"בשרי, ישראלי וחלבי","area":"מרכז","city":"תל אביב - יפו","address":"בוגרשוב 35","phone":"03-5283362","category":"מסעדה","type":"איטלקי,בשרים,חלבי,מזרחי","hours":"א-ה: 09:00-23:00\nשישי: 09:00-23:00\nשבת: 09:00-23:00","kosher":"","handicap":"Y","website":"olivekorner.com/","delivery":"ישיבה במסעדה","internal_link":"","is_new":"N","search_words":"","latitude":"32.076790","longitude":"34.770733"}
,{"img":"logo_55.jpg","name":"55 אוכל ובירה ","desc":"אוכל, בירה וחברים - כולל ארוחות עסקיות","area":"מרכז","city":"ראשון לציון","address":"מאה עשרים ואחת 4","phone":"03-5448888","category":"בר-פאב","type":"בר-פאב,בשרים,כריכים-סלטים,מתוקים-קינוחים","hours":"א-ה: א' -ב' 18:00-לקוח אחרון  ג'-ה' 17:00- לקוח אחרון\nשישי: 18:00- לקוח אחרון\nשבת: 13:00- לקוח אחרון","kosher":"","handicap":"Y","website":"55beers.co.il/","delivery":"ישיבה במסעדה","internal_link":"","is_new":"N","search_words":"פאב, בר מסעדת בשרים","latitude":"31.979773","longitude":"34.747565"}
,{"img":"logo_giggsi.jpg","name":"גיגסי  ספורט בר ","desc":"לא כולל עסקיות, תפריטי ילדים ו- happy hour","area":"דרום","city":"באר שבע","address":"יצחק נפחא 36 לא כולל אולם הייניקן ואולם פפסי מקס","phone":"08-6109109","category":"בר-פאב","type":"בר-פאב,בשרים,כריכים-סלטים,מתוקים-קינוחים","hours":"א-ה: 18:00- לקוח האחרון\nשישי: לא כולל אולם הייניקן ואולם פפסי מקס\nשבת: מצאת השבת - 01:00","kosher":"כשר","handicap":"Y","website":"www.giggsi.co.il/restaurant.php","delivery":"ישיבה במסעדה","internal_link":"","is_new":"N","search_words":"","latitude":"31.247743","longitude":"34.810701"}
,{"img":"logo_frangelico.jpg","name":"פרנג'ליקו ","desc":"מסעדה אסייתית ","area":"צפון","city":"עכו","address":"רחוב החרושת 2 קניון עזריאלי","phone":"04-6013160","category":"מסעדה","type":"סושי-אסייאתי","hours":"א-ה: 11:30-21:30\nשישי: 11:30-14:30\nשבת: שעה מצאת השבת - 20:30","kosher":"כשר","handicap":"Y","website":"frangelicobar.com/","delivery":"ישיבה במסעדה","internal_link":"","is_new":"N","search_words":"פרנג'ליקו, sushi","latitude":"32.923144","longitude":"35.081340"}
,{"img":"logo_pilpela.jpg","name":"מסעדת פלפלה ","desc":"מסעדה כפרית","area":"מרכז","city":"כפר קאסם","address":"כפר קאסם","phone":"03-9072038","category":"מסעדה","type":"בשרים,ים תיכוני,מזרחי","hours":"א-ה: 11:00-23:00\nשישי: 11:00-23:00\nשבת: 11:00-23:00","kosher":"","handicap":"Y","website":"37126760.rest.co.il/","delivery":"ישיבה במסעדה","internal_link":"","is_new":"N","search_words":"","latitude":"32.113788","longitude":"34.963716"}
,{"img":"logo_shemesh.jpg","name":"מפגש שמש ","desc":"שווארמה - בשרי מזרחי ","area":"מרכז","city":"רמת גן","address":"זבוטינסקי 155","phone":"03-6128989","category":"מסעדה","type":"בשרים,ים תיכוני,מזרחי","hours":"א-ה: 11:00-23:00\nשישי: \nשבת: ","kosher":"כשר -בד\"צ מחפוד","handicap":"Y","website":"mifgashshemesh.co.il/","delivery":"ישיבה במסעדה","internal_link":"","is_new":"N","search_words":"","latitude":"32.091222","longitude":"34.825009"}
,{"img":"logo_bayern.jpg","name":"ביירן - עזריאלי ","desc":"הבראסרי הבווארי הראשון בישראל","area":"מרכז","city":"תל אביב - יפו","address":"דרך מנחם בגין 132","phone":"03-9444132","category":"מסעדה","type":"בשרים","hours":"א-ה: 10:30-21:45\nשישי: 10:30 - שעה לפני כניסת שבת\nשבת: ","kosher":"","handicap":"Y","website":"bayern-market.com/","delivery":"ישיבה במסעדה","internal_link":"","is_new":"N","search_words":"","latitude":"32.073982","longitude":"34.785983"}
,{"img":"logo_bayern.jpg","name":"ביירן - שרונה ","desc":"הבראסרי הבווארי הראשון בישראל","area":"מרכז","city":"תל אביב - יפו","address":"קלמן מגן 3","phone":"","category":"מסעדה","type":"בשרים","hours":"א-ה: 11:00-22:00\nשישי: 10:30-15:00\nשבת: 11:00-22:00","kosher":"","handicap":"Y","website":"bayern-market.com/","delivery":"ישיבה במסעדה","internal_link":"","is_new":"N","search_words":"","latitude":"32.071280","longitude":"34.786328"}
,{"img":"logo_fatvinny_2024.jpg","name":"פאט ויני ","desc":"דיינר איטלקי ","area":"צפון","city":"חדרה","address":"קניון מול הים, פרופסור שכטמן 10","phone":"2730*","category":"מסעדה","type":"איטלקי","hours":"א-ה: 12:00-23:00\nשישי: 12:00-23:00\nשבת: 12:00-23:00","kosher":"","handicap":"Y","website":"www.fatvinny.com/about","delivery":"ישיבה במסעדה,משלוחים","internal_link":"mcc_item_new,266580","is_new":"N","search_words":"","latitude":"32.442431","longitude":"34.894919"}
,{"img":"logo_cafe_beg.jpg","name":"קפה בגולף","desc":"בוקר בראנץ' אווירה ","area":"צפון","city":"קיסריה","address":"מועדון הגולף קיסריה","phone":"04-7743733","category":"בית קפה","type":"איטלקי,בית קפה,בר-פאב","hours":"א-ה: 08:00-16:00\nשישי: 08:00-16:00\nשבת: 08:00-16:00","kosher":"","handicap":"Y","website":"","delivery":"ישיבה במסעדה","internal_link":"","is_new":"N","search_words":"","latitude":"32.501609","longitude":"34.907259"}
,{"img":"logo_maxbrenner_new.jpg","name":"מקס ברנר","desc":"בית קפה מתוקים וקינוחים","area":"מרכז","city":"תל אביב - יפו","address":"קלמן מגן 3","phone":"03-6229435","category":"מסעדה","type":"בית קפה,חלבי,מתוקים-קינוחים,צמחוני-טבעוני","hours":"א-ה: 09:00-00:00\nשישי: 09:00-01:30\nשבת: 09:00-00:30","kosher":"","handicap":"Y","website":"www.max-brenner.co.il","delivery":"ישיבה במסעדה,משלוחים","internal_link":"","is_new":"N","search_words":"מקס ברנר, שוקולד, חנות שוקולד, חלבי, sweets_delivery, CHOCOLAT","latitude":"32.071545","longitude":"34.786950"}
,{"img":"logo_cafecafe_2024.jpg","name":"קפה קפה ","desc":"מסעדה בשרית","area":"צפון","city":"גן שמואל","address":"מרכז מסחרי","phone":"","category":"בית קפה","type":"בשרים","hours":"א-ה: 08:00-23:00\nשישי: 08:00-23:00\nשבת: 08:00-23:00","kosher":"","handicap":"Y","website":"cafecafeeilat.rest.co.il","delivery":"ישיבה במסעדה","internal_link":"","is_new":"N","search_words":"קפה קפה, בית קפה","latitude":"32.453002","longitude":"34.949316"}
,{"img":"logo_cafecafe_2024.jpg","name":"קפה קפה ","desc":"בית קפה מסעדה חלבי","area":"צפון","city":"ראש פינה","address":"מרכז מסחרי חאן  מעלה גיא אוני 1","phone":"04-6936484","category":"בית קפה","type":"בית קפה,חלבי,כריכים-סלטים,מתוקים-קינוחים","hours":"א-ה: 08:00-23:00\nשישי: 08:00-14:00\nשבת: מצאת השבת- 23:00","kosher":"כשר למהדרין","handicap":"Y","website":"cafecafeeilat.rest.co.il","delivery":"ישיבה במסעדה","internal_link":"","is_new":"N","search_words":"קפה קפה, בית קפה","latitude":"32.968998","longitude":"35.547640"}
,{"img":"logo_italiano.jpg","name":"איטליאנו דה לה קוסטה ","desc":"מסעדה איטלקית ","area":"צפון","city":"חיפה","address":"העליה השנייה 96","phone":"04-6601011","category":"מסעדה","type":"איטלקי,דגים,חלבי,מתוקים-קינוחים","hours":"א-ה: 12:00-23:00\nשישי: 12:00-00:00\nשבת: 11:00-23:00","kosher":"","handicap":"Y","website":"www.eataliano.rest.co.il/","delivery":"ישיבה במסעדה","internal_link":"mcc_item_new,266291","is_new":"N","search_words":"פיצה, pizza_search","latitude":"32.831442","longitude":"34.970477"}
,{"img":"logo_retro.jpg","name":"רטרו פנקייק בר ","desc":"בר מסעדה ","area":"שרון","city":"כפר סבא","address":"התע״ש 24","phone":"09-7722688","category":"מסעדה","type":"בר-פאב,בית קפה,חלבי,מתוקים-קינוחים","hours":"א-ה: 09:00-01:00\nשישי: 09:00-02:00\nשבת: 10:00-01:00","kosher":"","handicap":"N","website":"misadot.rol.co.il/sites/retro-pancake-bar-ks/","delivery":"ישיבה במסעדה","internal_link":"","is_new":"N","search_words":"","latitude":"32.177147","longitude":"34.927569"}
,{"img":"logo_abuknafe.jpg","name":"אבו כנאפה - דוכן קניון איילון ","desc":"סוגי ממתקים מזרחיים מיוחדים וייחודיים","area":"מרכז","city":"רמת גן","address":"קניון איילון - רמת גן","phone":"052-2028665","category":"גלידריה מתוקים וקינוחים","type":"ים תיכוני,מזרחי,מתוקים-קינוחים","hours":"א-ה: דוכן בימי שישי בלבד\nשישי: דוכן בימי שישי בלבד\nשבת: דוכן בימי שישי בלבד","kosher":"","handicap":"Y","website":"","delivery":"ישיבה במסעדה","internal_link":"","is_new":"N","search_words":"אבו כנאפה, sweets_delivery","latitude":"32.100508","longitude":"34.826165"}
,{"img":"logo_abuknafe.jpg","name":"אבו כנאפה  - דוכן בילו סנטר","desc":"סוגי ממתקים מזרחיים מיוחדים וייחודיים","area":"מרכז","city":"קריית עקרון","address":"בילו סנטר קרית עקרון","phone":"052-2028665","category":"גלידריה מתוקים וקינוחים","type":"ים תיכוני,מזרחי,מתוקים-קינוחים","hours":"א-ה: פתוח בשבת בלבד\nשישי: פתוח בשבת בלבד\nשבת: פתוח בשבת בלבד","kosher":"","handicap":"Y","website":"","delivery":"ישיבה במסעדה","internal_link":"","is_new":"N","search_words":"ממתקים, אבו כנאפה, sweets_delivery","latitude":"31.863402","longitude":"34.817056"}
,{"img":"logo_kapit.jpg","name":"קפית בגן ","desc":"בית קפה מסעדה","area":"ירושלים","city":"ירושלים","address":"יהודה בורלא 1 הגן הבוטני","phone":"02-6480003","category":"בית קפה","type":"איטלקי,בית קפה,דגים,חלבי","hours":"א-ה: 08:00-00:00\nשישי: 08:00- שעה לפני כניסת שבת\nשבת: שעה לאחר צאת השבת - 00:00","kosher":"כשר","handicap":"Y","website":"caffit.co.il/","delivery":"ישיבה במסעדה","internal_link":"mcc_item_new,266464","is_new":"N","search_words":"קפית, בית קפה","latitude":"31.766395","longitude":"35.201567"}
,{"img":"logo_ashkara.jpg","name":"חומוס אשכרה","desc":"מסעדת חומוס","area":"מרכז","city":"תל אביב - יפו","address":"ירמיהו 45","phone":"03-5464547","category":"מסעדה","type":"ים תיכוני,צמחוני-טבעוני","hours":"א-ה: 05:00-02:00\nשישי: 05:00-16:30\nשבת: ","kosher":"כשר","handicap":"N","website":"misadot.rol.co.il/sites/hummus-ashkara","delivery":"ישיבה במסעדה","internal_link":"","is_new":"N","search_words":"","latitude":"32.095122","longitude":"34.777897"}
,{"img":"logo_cafecafe_2024.jpg","name":"קפה קפה ","desc":"בית קפה מסעדה","area":"צפון","city":"חיפה","address":"שד' בן גוריון 2","phone":"04-9823077","category":"בית קפה","type":"איטלקי,בית קפה,חלבי","hours":"א-ה: 07:30-23:30\nשישי: 07:00-שעה לפני כניסת שבת\nשבת: שעה לאחר צאת השבת - 23:30","kosher":"למהדרין","handicap":"Y","website":"www.cafecafe.co.il/he/home/a/main/","delivery":"ישיבה במסעדה","internal_link":"","is_new":"N","search_words":"קפה קפה, בית קפה","latitude":"32.823415","longitude":"34.992924"}
,{"img":"logo_cafecafe_2024.jpg","name":"קפה קפה ","desc":"בית קפה מסעדה ","area":"שרון","city":"טייבה","address":"כביש 444","phone":"050-9742699","category":"בית קפה","type":"חלבי","hours":"א-ה: 08:00-00:00\nשישי: 08:00-00:00\nשבת: 08:00-00:00","kosher":"","handicap":"Y","website":"www.cafecafe.co.il/he/home/a/main/","delivery":"ישיבה במסעדה","internal_link":"","is_new":"N","search_words":"קפה קפה, בית קפה","latitude":"32.264844","longitude":"35.000765"}
,{"img":"logo_cafecafe_2024.jpg","name":"קפה קפה","desc":"בית קפה מסעדה ","area":"צפון","city":"נהרייה","address":"שדרות הנשיא בן צבי 2","phone":"04-6080813","category":"בית קפה","type":"בית קפה,בשרים","hours":"א-ה: 08:00-22:00\nשישי: 07:30-15:30\nשבת: 09:00-22:00","kosher":"","handicap":"Y","website":"www.cafecafe.co.il/he/home/a/main/","delivery":"ישיבה במסעדה","internal_link":"","is_new":"N","search_words":"קפה קפה, בית קפה","latitude":"33.005183","longitude":"35.100515"}
,{"img":"logo_cafecafe_2024.jpg","name":"קפה קפה ","desc":"בית קפה מסעדה","area":"צפון","city":"קריית טבעון","address":"ככר בן גוריון 1 - גן המייסדים","phone":"04-9830883","category":"בית קפה","type":"איטלקי,בית קפה,חלבי,כריכים-סלטים","hours":"א-ה: 07:30-00:00\nשישי: 07:30-00:00\nשבת: 0900-00:00","kosher":"","handicap":"Y","website":"www.cafecafe.co.il/he/home/a/main/","delivery":"ישיבה במסעדה","internal_link":"","is_new":"N","search_words":"קפה קפה, בית קפה","latitude":"32.722624","longitude":"35.131037"}
,{"img":"logo_cafecafe_2024.jpg","name":"קפה קפה ","desc":"בית קפה מסעדה","area":"ירושלים","city":"אלמוג","address":"צומת אלמוג","phone":"02-9402555","category":"בית קפה","type":"בית קפה,בשרים","hours":"א-ה: 08:00-00:00\nשישי: 08:00-00:00\nשבת: 08:00-00:00","kosher":"","handicap":"Y","website":"www.cafecafe.co.il/he/home/a/main/","delivery":"ישיבה במסעדה","internal_link":"","is_new":"N","search_words":"קפה קפה, בית קפה","latitude":"31.802150","longitude":"35.453036"}
,{"img":"logo_nori.jpg","name":"NORI","desc":"סושי בר  - לא כולל HAPPY HOUR","area":"שרון","city":"נתניה","address":"הצורן 4","phone":"09-7703990","category":"מסעדה","type":"סושי-אסייאתי,בשרים,דגים,צמחוני-טבעוני","hours":"א-ה: 11:30-23:30\nשישי: \nשבת: ","kosher":"כשר","handicap":"Y","website":"nori.co.il/","delivery":"ישיבה במסעדה","internal_link":"","is_new":"N","search_words":"נורי","latitude":"32.288779","longitude":"34.865872"}
,{"img":"logo_rene.jpg","name":"רנה","desc":"ביסטרו בר קפה ","area":"צפון","city":"ראש פינה","address":"דרך הגליל","phone":"04-6151935","category":"מסעדה","type":"בר-פאב,חלבי,כריכים-סלטים","hours":"א-ה: 08:00-00:00\nשישי: 08:00-00:00\nשבת: 08:00-00:00","kosher":"כשר","handicap":"Y","website":"renebistrobarcafe.co.il/default.aspx","delivery":"ישיבה במסעדה","internal_link":"","is_new":"N","search_words":"רנה","latitude":"32.969705","longitude":"35.549973"}
,{"img":"logo_rene.jpg","name":"רנה","desc":"ביסטרו בר קפה ","area":"צפון","city":"כרמיאל","address":"מעלה כמון מתחם ביג","phone":"04-6126773","category":"מסעדה","type":"בית קפה","hours":"א-ה: 08:00-00:00\nשישי: \nשבת: ","kosher":"כשר","handicap":"Y","website":"renebistrobarcafe.co.il/default.aspx","delivery":"ישיבה במסעדה","internal_link":"","is_new":"N","search_words":"רנה","latitude":"32.927367","longitude":"35.323510"}
,{"img":"logo_coffenas.jpg","name":"קופינאס","desc":"ביסטרו איטלקי במושב","area":"שרון","city":"צור משה","address":"השיבולים 3","phone":"09-7722672","category":"בית קפה","type":"איטלקי,בית קפה","hours":"א-ה: 09:00-23:00\nשישי: 08:30-23:00\nשבת: 09:00-23:00","kosher":"","handicap":"Y","website":"www.kofinas.co.il/","delivery":"ישיבה במסעדה","internal_link":"mcc_item_new,266201","is_new":"N","search_words":"קופינאס, מסעדה איטלקית","latitude":"32.298364","longitude":"34.913112"}
,{"img":"logo_taya.png","name":"טאיה ","desc":"אסייתי וסושי בר ","area":"שרון","city":"קדימה","address":"האופה 1 רולדין סנטר","phone":"09-7728878","category":"מסעדה","type":"סושי-אסייאתי,צמחוני-טבעוני","hours":"א-ה: 12:00-23:00\nשישי: 12:00-23:00\nשבת: 12:00-23:00","kosher":"","handicap":"Y","website":"www.tayarest.co.il/","delivery":"ישיבה במסעדה","internal_link":"","is_new":"N","search_words":"טאיה","latitude":"32.276485","longitude":"34.919583"}
,{"img":"teamim_default.jpg","name":"בורקס השוק ","desc":"דוכן בורקסים בכל הטעמים ","area":"מרכז","city":"תל אביב - יפו","address":"קלמן מגן 3 שרונה מרקט","phone":"052-22028665","category":"מאפיה וקונדיטוריה","type":"ים תיכוני","hours":"א-ה: 09:30-22:00\nשישי: 08:30-16:30\nשבת: 09:00-16:30","kosher":"כשר","handicap":"Y","website":"","delivery":"ישיבה במסעדה","internal_link":"","is_new":"N","search_words":"בורקס, chease_bakery_search","latitude":"32.070988","longitude":"34.787288"}
,{"img":"logo_hachapuri_house.jpg","name":"בית החצ'פורי ","desc":"בן גוריון 105","area":"מרכז","city":"בת ים","address":"בן גוריון 105","phone":"1700-700-165","category":"מסעדה","type":"חלבי","hours":"א-ה: 08:30-00:00\nשישי: 08:30-00:00\nשבת: 08:30-00:00","kosher":"","handicap":"N","website":"deda.co.il/hachapori/?","delivery":"ישיבה במסעדה","internal_link":"mcc_item_new,266488","is_new":"N","search_words":"","latitude":"32.016146","longitude":"34.738723"}
,{"img":"logo_cafecafe_2024.jpg","name":"קפה קפה ","desc":"בית קפה - בשרי ","area":"צפון","city":"נצרת","address":"הגליל 1","phone":"04-6797235","category":"בית קפה","type":"בית קפה,בשרים","hours":"א-ה: 07:30-22:00\nשישי: 07:30-22:00\nשבת: 07:30-22:00","kosher":"","handicap":"Y","website":"www.cafecafe.co.il/he/home/a/main","delivery":"ישיבה במסעדה","internal_link":"","is_new":"N","search_words":"קפה קפה, בית קפה","latitude":"32.706400","longitude":"35.301751"}
,{"img":"logo_moon_new.jpg","name":"moon","desc":"מסעדה יפנית ","area":"שרון","city":"הרצליה","address":"החושלים 4","phone":"03-6291155","category":"מסעדה","type":"סושי-אסייאתי,צמחוני-טבעוני","hours":"א-ה: 12:00-23:30\nשישי: 12:00-16:00\nשבת: ","kosher":"","handicap":"Y","website":"www.moon-sushi.co.il/","delivery":"ישיבה במסעדה,משלוחים","internal_link":"mcc_item_new,266444","is_new":"N","search_words":"מון","latitude":"32.158741","longitude":"34.807262"}
,{"img":"logo_shiloh.jpg","name":"יקב שילה ","desc":"יקב בוטיק מכירת יין וסיורי טעימות בתיאום מראש","area":"ירושלים","city":"שילה","address":"אזור התעשיה שילה","phone":"050-3422268","category":"יקבים ומבשלות בירה","type":"בר-פאב","hours":"א-ה: בתיאום מראש 09:00-17:00\nשישי: 09:00-17:00 בתיאום מראש\nשבת: ","kosher":"כשר","handicap":"Y","website":"www.shilohwinery.com/?lang=he","delivery":"ישיבה במסעדה,משלוחים","internal_link":"mcc_item_new,266650","is_new":"N","search_words":"winerybeer","latitude":"32.047769","longitude":"35.302239"}
,{"img":"logo_kahanov.jpg","name":"יקב כהנוב ","desc":"מכירת יין וסיורים בתיאום מראש ","area":"דרום","city":"גדרה","address":"גדרה","phone":"052-2523721 | 052-3963999","category":"בר-פאב","type":"בר-פאב","hours":"א-ה: בתיאום טלפוני מראש\nשישי:  בתיאום מראש 10:00-15:00\nשבת: ","kosher":"","handicap":"Y","website":"www.kahanov.com/","delivery":"ישיבה במסעדה,משלוחים","internal_link":"mcc_item_new,267623","is_new":"N","search_words":"winerybeer","latitude":"31.825372","longitude":"34.770399"}
,{"img":"logo_yaffo_winery.jpg","name":"יקב יפו","desc":"מכירת יין","area":"ירושלים","city":"נווה מיכאל","address":"נוה מיכאל עמק האלה","phone":"054-4523201","category":"יקבים ומבשלות בירה","type":"בר-פאב","hours":"א-ה: \nשישי: 11:00-17:00\nשבת: ","kosher":"למהדרין","handicap":"N","website":"www.yaffowinery.co.il/","delivery":"איסוף עצמי,משלוחים","internal_link":"mcc_item_new,267555","is_new":"N","search_words":"winerybeer","latitude":"31.675930","longitude":"35.001648"}
,{"img":"logo_mosco.jpg","name":"מוסקו ","desc":"מבשלת בירה בוטיק","area":"ירושלים","city":"זנוח","address":"מושב זנוח משק 28","phone":"052-2332591","category":"יקבים ומבשלות בירה","type":"בר-פאב","hours":"א-ה: יום ה'  09:00-17:00 20:00-02:30 בר פתוח\nשישי: תיאום טלפוני מראש\nשבת: ","kosher":"כשר בד\"צ בית יוסף","handicap":"Y","website":"moscobeer.co.il/","delivery":"ישיבה במסעדה","internal_link":"","is_new":"N","search_words":"","latitude":"31.733755","longitude":"34.998150"}
,{"img":"logo_psagot.jpg","name":"יקב פסגות ","desc":"מכירת יין וסיורים בתיאום מראש","area":"ירושלים","city":"פסגות","address":"ישוב פסגות","phone":"02-9979333","category":"יקבים ומבשלות בירה","type":"בר-פאב","hours":"א-ה: 09:00-16:00 בתיאום מראש\nשישי: 09:00-13:00 בתיאום מראש\nשבת: ","kosher":"כשר","handicap":"Y","website":"psagotwines.com/","delivery":"ישיבה במסעדה","internal_link":"","is_new":"N","search_words":"winerybeer","latitude":"31.875328","longitude":"35.259165"}
,{"img":"logo_golani.jpg","name":"מזקקת גולני ","desc":"מזקקת ויסקי ג'ין וערק בייצור עצמי","area":"צפון","city":"קצרין","address":"אזור התעשיה 18 קצרין","phone":"053-3394787","category":"יקבים ומבשלות בירה","type":"בר-פאב","hours":"א-ה: 10:00-16:00 בתיאום מראש\nשישי: 10:00-14:00  בתיאום מראש\nשבת: לתאום ההגעה להתקשר 053-3394787","kosher":"כשר למהדרין","handicap":"Y","website":"www.golanispirit.com/","delivery":"איסוף עצמי,משלוחים","internal_link":"mcc_item_new,266623","is_new":"N","search_words":"winerybeer","latitude":"32.991709","longitude":"35.709702"}
,{"img":"logo_dalton.jpg","name":"יקב דלתון","desc":"מכירת יין וסיורים בתיאום מראש ","area":"צפון","city":"דלתון","address":"פארק תעשיה דלתון מרום גליל","phone":"04-9527107 או 054-6360940","category":"יקבים ומבשלות בירה","type":"בר-פאב","hours":"א-ה: 10:00-18:00\nשישי: 10:00-14:00\nשבת: ","kosher":"כשר למהדרין","handicap":"Y","website":"www.dalton-winery.com/","delivery":"איסוף עצמי,משלוחים","internal_link":"mcc_item_new,266658","is_new":"N","search_words":"winerybeer","latitude":"33.029603","longitude":"35.476754"}
,{"img":"logo_butchery.jpg","name":"בוצ'רי ","desc":"אחוזת בשר ","area":"דרום","city":"באר שבע","address":"ההסתדרות 22","phone":"08-6233370","category":"מסעדה","type":"בשרים,דגים,ים תיכוני","hours":"א-ה: 12:00-23:00\nשישי: 12:00-שעתיים לפני כניסת שבת\nשבת: מצאת השבת - 23:30","kosher":"כשר","handicap":"N","website":"","delivery":"ישיבה במסעדה","internal_link":"","is_new":"N","search_words":"basar_rest","latitude":"31.238132","longitude":"34.787564"}
,{"img":"logo_bread_breakfast.jpg","name":"Bread and Breakfast ","desc":"בית קפה מסעדה ","area":"שרון","city":"רעננה","address":"זבוטינסקי 3","phone":"09-7728340","category":"בית קפה","type":"בית קפה,דגים,חלבי,ים תיכוני","hours":"א-ה: 07:00-20:00\nשישי: 07:00-14:00\nשבת: ","kosher":"כשר למהדרין","handicap":"Y","website":"breadandbreakfast.rest.co.il/","delivery":"ישיבה במסעדה","internal_link":"","is_new":"N","search_words":"ברד אנד בברקפס, בית קפה","latitude":"32.179804","longitude":"34.874271"}
